{
"positions":[
{"lat" : 37.5644836818,
"lon" : 126.9801832153,
"address" : "서울특별시 중구 소공로 106 신세계 조선호텔"},
{"lat" : 37.5644836818,
"lon" : 126.9801832153,
"address" : "서울특별시 중구 소공로 106 신세계 조선호텔"},
{"lat" : 37.5316289877,
"lon" : 126.9141966346,
"address" : "서울특별시 영등포구 의사당대로 1 국회사무처"},
{"lat" : 37.5316876225,
"lon" : 126.9142927342,
"address" : "서울특별시 영등포구 의사당대로 1 국회의사당 국회사무처"},
{"lat" : 37.535214496,
"lon" : 126.8254796006,
"address" : "서울특별시 양천구 가로공원로 86"},
{"lat" : 37.5752995329,
"lon" : 126.8933080792,
"address" : "서울특별시 마포구 월드컵북로47길 10"},
{"lat" : 37.5710567385,
"lon" : 127.0751129785,
"address" : "서울특별시 동대문구 장안벚꽃로 107"},
{"lat" : 37.5389980577,
"lon" : 127.0712156567,
"address" : "서울특별시 광진구 능동로 92 건대스타시티점 1층 안전실"},
{"lat" : 37.5678235802,
"lon" : 127.0250516711,
"address" : "서울특별시 성동구 마장로 137"},
{"lat" : 37.6475199007,
"lon" : 127.0540615912,
"address" : "서울특별시 도봉구 노해로70길 126 1803동"},
{"lat" : 37.5857974166,
"lon" : 127.0462614013,
"address" : "서울특별시 동대문구 홍릉로10길 48  (청량리동, 홍릉동부아파트)"},
{"lat" : 37.6468263968,
"lon" : 127.0535058604,
"address" : "서울특별시 도봉구 노해로70길 126 1805동"},
{"lat" : 37.5739947514,
"lon" : 127.0738933543,
"address" : "서울특별시 동대문구 답십리로69길 27"},
{"lat" : 37.5016429904,
"lon" : 127.0263368879,
"address" : "서울특별시 강남구 강남대로 438 (역삼동) 스타플렉스 4층"},
{"lat" : 37.6462967249,
"lon" : 127.0542589989,
"address" : "서울특별시 도봉구 노해로70길 126 1801동"},
{"lat" : 37.5324853857,
"lon" : 126.8988269041,
"address" : "서울특별시 영등포구 당산로41길 12 당산서중학교"},
{"lat" : 37.5207747014,
"lon" : 126.8559472731,
"address" : "서울특별시 양천구 중앙로36길 15 (신정동, 목동힐스테이트)"},
{"lat" : 37.4933675949,
"lon" : 126.9238903687,
"address" : "서울특별시 동작구 보라매로5길 20 보라매병원 (신대방동)"},
{"lat" : 37.5825016193,
"lon" : 127.0583778192,
"address" : "서울특별시 동대문구 사가정로13길 67 전일중학교"},
{"lat" : 37.5468810021,
"lon" : 127.0240714816,
"address" : "서울특별시 성동구 금호로 17"},
{"lat" : 37.6111602023,
"lon" : 126.9582758532,
"address" : "서울특별시 종로구 비봉2길 90"},
{"lat" : 37.566708049,
"lon" : 127.0328071031,
"address" : "서울특별시 성동구 마장로 207"},
{"lat" : 37.6031305977,
"lon" : 127.1053319406,
"address" : "서울특별시 중랑구 망우로73길 56"},
{"lat" : 37.6499993424,
"lon" : 127.0433005707,
"address" : "서울특별시 도봉구 해등로 50"},
{"lat" : 37.6499993424,
"lon" : 127.0433005707,
"address" : "서울특별시 도봉구 해등로 50"},
{"lat" : 37.6499993424,
"lon" : 127.0433005707,
"address" : "서울특별시 도봉구 해등로 50"},
{"lat" : 37.6499993424,
"lon" : 127.0433005707,
"address" : "서울특별시 도봉구 해등로 50"},
{"lat" : 37.5510227956,
"lon" : 126.9151566934,
"address" : "서울특별시 마포구 서교동 393 (양화로지하55번지)"},
{"lat" : 37.5491422712,
"lon" : 127.1577729533,
"address" : "서울특별시 강동구 동남로 832, 한영외국어고등학교 (상일동)"},
{"lat" : 37.6390073390,
"lon" : 127.0719030003,
"address" : "서울특별시 노원구 한글비석로 91 (하계동, 하계1차청구아파트)"},
{"lat" : 37.5484046977,
"lon" : 126.8326595724,
"address" : "서울특별시 강서구 강서로45길 70 (내발산동)"},
{"lat" : 37.5598130845,
"lon" : 126.8500682852,
"address" : "서울특별시 강서구 화곡로65길 90"},
{"lat" : 37.5463031289,
"lon" : 127.1238553473,
"address" : "서울특별시 강동구 구천면로 141"},
{"lat" : 37.6110234082,
"lon" : 127.0583548032,
"address" : "서울특별시 성북구 돌곶이로22길 21 (석관동)"},
{"lat" : 37.5902447248,
"lon" : 126.9453299466,
"address" : "서울특별시 서대문구 세무서길 33-9"},
{"lat" : 37.6578410770,
"lon" : 127.0733100011,
"address" : "서울특별시 노원구 한글비석로19길 39"},
{"lat" : 37.4790602487,
"lon" : 126.9041674797,
"address" : "서울특별시 금천구 독산로 362 (독산동)"},
{"lat" : 37.6442393991,
"lon" : 127.0680300799,
"address" : "서울특별시 노원구 공릉로 420"},
{"lat" : 37.6610743433,
"lon" : 127.0780777205,
"address" : "서울특별시 노원구 덕릉로86길 29-15"},
{"lat" : 37.5632742878,
"lon" : 127.0296454666,
"address" : "서울특별시 성동구 무학봉15길 21"},
{"lat" : 37.5842198873,
"lon" : 126.9271653073,
"address" : "서울특별시 서대문구 명지2길 56 (홍은동)"},
{"lat" : 37.5476404895,
"lon" : 126.942047707,
"address" : "서울특별시 마포구 대흥로 지하 85 (6호선 대흥역)"},
{"lat" : 37.5558504520,
"lon" : 126.9421862123,
"address" : "서울특별시 마포구 신촌로26길 10"},
{"lat" : 37.566708049,
"lon" : 127.0328071031,
"address" : "서울특별시 성동구 마장로 207"},
{"lat" : 37.5596317628,
"lon" : 126.9518352535,
"address" : "서울특별시 서대문구 북아현로5나길 84 (북아현동)"},
{"lat" : 37.6183528114,
"lon" : 127.0157534023,
"address" : "서울특별시 강북구 삼양로27길 95 미아두산위브트레지움 (미아동, 두산위브트레지움아파트)"},
{"lat" : 37.5548797344,
"lon" : 127.0439788325,
"address" : "서울특별시 성동구 왕십리로 222"},
{"lat" : 37.5113149018,
"lon" : 127.0120209791,
"address" : "서울특별시 서초구 나루터로4길 28 관리사무소 내"},
{"lat" : 37.5539193870,
"lon" : 126.9748986617,
"address" : "서울특별시 중구 후암로 98"},
{"lat" : 37.5539193870,
"lon" : 126.9748986617,
"address" : "서울특별시 중구 후암로 98"},
{"lat" : 37.5308342854,
"lon" : 127.1463302672,
"address" : "서울특별시 강동구 진황도로61길 25-30"},
{"lat" : 37.5409471000,
"lon" : 127.1006793074,
"address" : "서울특별시 광진구 아차산로70길 35 (광장동)"},
{"lat" : 37.5545423636,
"lon" : 127.1425695083,
"address" : "서울특별시 강동구 고덕로38길 8 (암사동) 명일초등학교"},
{"lat" : 37.5064354739,
"lon" : 127.0068357234,
"address" : "서울특별시 서초구 신반포로 194 고속터미널역사 내(고객서비스센터 맞은편)"},
{"lat" : 37.5679046115,
"lon" : 127.0146923480,
"address" : "서울특별시 중구 신당1동 254-6(다산로 269)"},
{"lat" : 37.6394398968,
"lon" : 127.0124041546,
"address" : "서울특별시 강북구 인수봉로 227 인수파출소 (수유동)"},
{"lat" : 37.5004057409,
"lon" : 126.8627853924,
"address" : "서울특별시 구로구 중앙로3길 18-8 고척1동주민센터 (고척동)"},
{"lat" : 37.6281392975,
"lon" : 127.039150773,
"address" : "서울특별시 강북구 오현로 186"},
{"lat" : 37.5290422946,
"lon" : 127.1252086764,
"address" : "서울특별시 강동구 성내로45"},
{"lat" : 37.4892994649,
"lon" : 127.0728984724,
"address" : "서울특별시 강남구 개포로 516 (개포동, 주공아파트)"},
{"lat" : 37.5453287727,
"lon" : 127.0179242367,
"address" : "서울특별시 성동구 독서당로 272"},
{"lat" : 37.5609699012,
"lon" : 126.9545054804,
"address" : "서울특별시 서대문구 북아현로3길 24 (북아현동)"},
{"lat" : 37.5482972431,
"lon" : 126.9519149716,
"address" : "서울특별시 마포구 마포대로7길 22"},
{"lat" : 37.6150088843,
"lon" : 127.0109729743,
"address" : "서울특별시 성북구 솔샘로24길 15 (정릉동, 정릉e편한세상)"},
{"lat" : 37.5344810363,
"lon" : 127.1140965642,
"address" : "서울특별시 송파구 풍성로 14"},
{"lat" : 37.4828637408,
"lon" : 126.8389881756,
"address" : "서울특별시 구로구 천왕로 10  (천왕동, 천왕 이펜하우스 5단지)"},
{"lat" : 37.4364299197,
"lon" : 127.0140971188,
"address" : "경기도 과천시 대공원광장로 102 서울대공원내"},
{"lat" : 37.5129475657,
"lon" : 126.8982605917,
"address" : "서울특별시 영등포구 경인로 756 영등포초등학교"},
{"lat" : 37.5034993087,
"lon" : 126.8842089389,
"address" : "서울특별시 구로구 새말로 31(구로동)"},
{"lat" : 37.5981643435,
"lon" : 127.0297498944,
"address" : "서울특별시 성북구 종암로23길 35 (종암동, 래미안세레니티)"},
{"lat" : 37.476123336,
"lon" : 126.9092088981,
"address" : "서울특별시 금천구 문성로 62-15, 서울영남초등학교 (독산동)"},
{"lat" : 37.5320312757,
"lon" : 126.9076160717,
"address" : "서울특별시 영등포구 버드나루로 160 당산중학교"},
{"lat" : 37.5981643435,
"lon" : 127.0297498944,
"address" : "서울특별시 성북구 종암로23길 35 (종암동, 래미안세레니티)"},
{"lat" : 37.5981643435,
"lon" : 127.0297498944,
"address" : "서울특별시 성북구 종암로23길 35 (종암동, 래미안세레니티)"},
{"lat" : 37.4637578038,
"lon" : 126.9091243816,
"address" : "서울특별시 금천구 독산로50길 89 (시흥동,삼익아파트)"},
{"lat" : 37.5783343867,
"lon" : 127.0604394791,
"address" : "서울특별시 동대문구 전농로16길 51 (전농동 688-1)"},
{"lat" : 37.5127998356,
"lon" : 127.0112204060,
"address" : "서울특별시 서초구 잠원로4길 지하 46"},
{"lat" : 37.5255115969,
"lon" : 126.8868673732,
"address" : "서울특별시 영등포구 양산로 지하 21 양평역"},
{"lat" : 37.4470769892,
"lon" : 126.89869793,
"address" : "서울특별시 금천구 시흥대로47길 43-1, 문백초등학교 (시흥동)"},
{"lat" : 37.5179674757,
"lon" : 126.9328810604,
"address" : "서울특별시 영등포구 여의대방로68길 15 영창빌딩 3층"},
{"lat" : 37.5320339098,
"lon" : 126.8966597914,
"address" : "서울특별시 영등포구 당산로41길 23 당산4가현대3차아파트"},
{"lat" : 37.5543385691,
"lon" : 127.0348840388,
"address" : "서울특별시 성동구 고산자로 160 (응봉동, 대림 강변 타운)"},
{"lat" : 37.5059321092,
"lon" : 126.8520083033,
"address" : "서울특별시 구로구 고척로45길 31 고척도서관 (고척동)"},
{"lat" : 37.5766761580,
"lon" : 127.0606877088,
"address" : "서울특별시 동대문구 사가정로 148"},
{"lat" : 37.5399409573,
"lon" : 127.0168231297,
"address" : "서울특별시 성동구 한림말길 50"},
{"lat" : 37.5311004495,
"lon" : 126.9019151391,
"address" : "서울특별시 영등포구 당산로42길 13 효성1차아파트"},
{"lat" : 37.5588981564,
"lon" : 127.0440491014,
"address" : "서울특별시 성동구 왕십리로 222"},
{"lat" : 37.5582766359,
"lon" : 127.0482317806,
"address" : "서울특별시 성동구 왕십리로 222"},
{"lat" : 37.5039344561,
"lon" : 127.0024111972,
"address" : "서울특별시 서초구 신반포로 176 대합실"},
{"lat" : 37.552658738,
"lon" : 126.9313787633,
"address" : "서울특별시 마포구 서강로9길 45"},
{"lat" : 37.5981643435,
"lon" : 127.0297498944,
"address" : "서울특별시 성북구 종암로23길 35 (종암동, 래미안세레니티)"},
{"lat" : 37.5686177676,
"lon" : 127.0610066487,
"address" : "서울특별시 동대문구 한천로11길 10-1"},
{"lat" : 37.4579405540,
"lon" : 126.8877830310,
"address" : "서울특별시 금천구 한내로 69-17, 독산1동분소, 신독산 치안센터 (독산동)"},
{"lat" : 37.476218359,
"lon" : 126.9109407665,
"address" : "서울특별시 금천구 문성로 64, 독산고등학교 (독산동)"},
{"lat" : 37.5429331643,
"lon" : 127.0421387123,
"address" : "서울특별시 성동구 뚝섬로 273"},
{"lat" : 37.5045308204,
"lon" : 127.1289706452,
"address" : "서울특별시 송파구 중대로 247"},
{"lat" : 37.5028169537,
"lon" : 127.0829339892,
"address" : "서울특별시 송파구 백제고분로18길 30 관리사무소내"},
{"lat" : 37.5425428517,
"lon" : 127.0737265171,
"address" : "서울특별시 광진구 능동로 120"},
{"lat" : 37.5743724063,
"lon" : 127.0805681153,
"address" : "서울특별시 중랑구 답십리로 75길 61(면목동)"},
{"lat" : 37.5467874748,
"lon" : 127.0555978994,
"address" : "서울특별시 성동구 성수일로8길 47"},
{"lat" : 37.5670791453,
"lon" : 127.0332147533,
"address" : "서울특별시 성동구 마장로23길 10"},
{"lat" : 37.6014224941,
"lon" : 127.041184201,
"address" : "서울특별시 성북구 월곡로 지하 107 (하월곡동)"},
{"lat" : 37.5841075367,
"lon" : 127.0452731057,
"address" : "서울특별시 동대문구 약령시로21길 15"},
{"lat" : 37.5723437389,
"lon" : 127.0685668468,
"address" : "서울특별시 동대문구 답십리로66길 3"},
{"lat" : 37.5757995659,
"lon" : 127.0372758628,
"address" : "서울특별시 동대문구 천호대로27길 35"},
{"lat" : 37.5688854829,
"lon" : 127.0087747747,
"address" : "서울특별시 중구 장충단로 275 두산타워 빌딩"},
{"lat" : 37.5688854829,
"lon" : 127.0087747747,
"address" : "서울특별시 중구 장충단로 275 두산타워빌딩"},
{"lat" : 37.5688854829,
"lon" : 127.0087747747,
"address" : "서울특별시 중구 장충단로 275 두산타워빌딩"},
{"lat" : 37.5641067558,
"lon" : 126.9030399652,
"address" : "서울특별시 마포구 월드컵로 지하 190 (6호선 마포구청역)"},
{"lat" : 37.5444619806,
"lon" : 126.950437345,
"address" : "서울특별시 마포구 마포대로 지하 100 (6호선 공덕역)"},
{"lat" : 37.5518648904,
"lon" : 126.9134491667,
"address" : "서울특별시 마포구 양화로11길 63"},
{"lat" : 37.5610873361,
"lon" : 126.8605599478,
"address" : "서울특별시 강서구 허준로 202"},
{"lat" : 37.5646287321,
"lon" : 126.8535176336,
"address" : "서울특별시 강서구 양천로57길 36 관리사무실"},
{"lat" : 37.5710840255,
"lon" : 126.8200394616,
"address" : "서울특별시 강서구 방화대로34길 65"},
{"lat" : 37.5522108670,
"lon" : 126.9608210782,
"address" : "서울특별시 마포구 마포대로24길 42"},
{"lat" : 37.5565881480,
"lon" : 126.9563506346,
"address" : "서울특별시 마포구 마포대로 247"},
{"lat" : 37.5702322358,
"lon" : 126.9814177897,
"address" : "서울특별시 종로구 종로 지하 55(종로1가)"},
{"lat" : 37.5929614995,
"lon" : 127.0808553744,
"address" : "서울특별시 중랑구 봉우재로 93-5(상봉동)"},
{"lat" : 37.5918986708,
"lon" : 127.0949172042,
"address" : "서울특별시 중랑구 용마산로 461(망우동)"},
{"lat" : 37.5732329745,
"lon" : 127.0912620459,
"address" : "서울특별시 중랑구 용마산로 250-12(면목동)"},
{"lat" : 37.5807600440,
"lon" : 127.0886809509,
"address" : "서울특별시 중랑구 사가정로 지하 393(면목동)"},
{"lat" : 37.6146280362,
"lon" : 127.0815402840,
"address" : "서울특별시 중랑구 숙선옹주로7길 1(묵동)"},
{"lat" : 37.5076742447,
"lon" : 126.9508631863,
"address" : "서울특별시 동작구 상도2동 414-8"},
{"lat" : 37.4873866240,
"lon" : 126.9065240398,
"address" : "서울특별시 동작구 신대방1가길 38 (신대방동, 동작상떼빌아파트)"},
{"lat" : 37.654167091,
"lon" : 127.0386839448,
"address" : "서울특별시 도봉구 도봉로 552"},
{"lat" : 37.4896420655,
"lon" : 126.9759378520,
"address" : "서울특별시 동작구 동작대로29길 91 (사당동, 사당우성2단지아파트)"},
{"lat" : 37.4821361570,
"lon" : 126.9210370224,
"address" : "서울특별시 관악구 남부순환로172길 97"},
{"lat" : 37.4786731106,
"lon" : 126.9509387105,
"address" : "서울특별시 관악구 관악로 145"},
{"lat" : 37.4786641052,
"lon" : 126.9509500221,
"address" : "서울특별시 관악구 관악로 145"},
{"lat" : 37.5816098340,
"lon" : 127.0900010277,
"address" : "서울특별시 중랑구 면목로66길 7(면목동)"},
{"lat" : 37.5744267130,
"lon" : 127.0853453000,
"address" : "서울특별시 중랑구 동일로 608(면목동)"},
{"lat" : 37.4980884488,
"lon" : 126.9530859678,
"address" : "서울특별시 동작구 상도로53길 9 상도1동주민센터 (상도동)"},
{"lat" : 37.4806410354,
"lon" : 126.9570325117,
"address" : "서울특별시 관악구 행운1길 43"},
{"lat" : 37.6499993424,
"lon" : 127.0433005707,
"address" : "서울특별시 도봉구 해등로 50"},
{"lat" : 37.5062516392,
"lon" : 126.9926711815,
"address" : "서울특별시 서초구 신반포로15길 19  (반포동, 아크로리버파크)"},
{"lat" : 37.5062516392,
"lon" : 126.9926711815,
"address" : "서울특별시 서초구 신반포로15길 19  (반포동, 아크로리버파크)"},
{"lat" : 37.481466963,
"lon" : 127.0005381736,
"address" : "서울특별시 서초구 효령로 164  (방배동, 신동아아파트)"},
{"lat" : 37.5532607799,
"lon" : 126.9517612666,
"address" : "서울특별시 마포구 마포대로 195 3단지 6초소 (아현동, 마포 래미안 푸르지오)"},
{"lat" : 37.5688854829,
"lon" : 127.0087747747,
"address" : "서울특별시 중구 장충단로 275 두타빌딩"},
{"lat" : 37.5586300824,
"lon" : 127.1117068379,
"address" : "서울특별시 광진구 워커힐로 177 비스타호텔 3층 피트니스센터 (광장동)"},
{"lat" : 37.5096281132,
"lon" : 126.9478047009,
"address" : "서울특별시 동작구 만양로8길 50 (노량진동, 우성아파트)"},
{"lat" : 37.5586300824,
"lon" : 127.1117068379,
"address" : "서울특별시 광진구 워커힐로 177  (광장동)"},
{"lat" : 37.5586300824,
"lon" : 127.1117068379,
"address" : "서울특별시 광진구 워커힐로 177 비스타호텔 보안과 (광장동)"},
{"lat" : 37.5818716077,
"lon" : 127.0569780106,
"address" : "서울특별시 동대문구 전농로20길 31"},
{"lat" : 37.5638729631,
"lon" : 127.0895245392,
"address" : "서울특별시 광진구 용마산로22길 26 (중곡동)"},
{"lat" : 37.5508021394,
"lon" : 126.9140332021,
"address" : "서울특별시 마포구 양화로 45 101동 B1층 (서교동, 메세나폴리스)"},
{"lat" : 37.4446823048,
"lon" : 126.9010742903,
"address" : "서울특별시 금천구 시흥대로 97  (시흥동)"},
{"lat" : 37.5423543308,
"lon" : 126.9420540619,
"address" : "서울특별시 마포구 토정로31길 23 106동 지하1층 생활지원센터 (용강동)"},
{"lat" : 37.5541970391,
"lon" : 126.9555151263,
"address" : "서울특별시 마포구 마포대로 195 2단지 3초소 (아현동, 마포 래미안 푸르지오)"},
{"lat" : 37.5543264850,
"lon" : 126.9524396096,
"address" : "서울특별시 마포구 마포대로 195 3단지 5초소 (아현동, 마포 래미안 푸르지오)"},
{"lat" : 37.5046157494,
"lon" : 126.9229631373,
"address" : "서울특별시 동작구 여의대방로36길 11  (대방동)"},
{"lat" : 37.5135490858,
"lon" : 127.1042082853,
"address" : "서울특별시 송파구 올림픽로 300 롯데월드타워 42층 시그니엘레지던스 (신천동)"},
{"lat" : 37.5772791094,
"lon" : 126.9906717932,
"address" : "서울특별시 종로구 율곡로 102  (와룡동)"},
{"lat" : 37.6426599474,
"lon" : 126.9190817255,
"address" : "서울특별시 은평구 진관3로 73-17  (진관동)"},
{"lat" : 37.5547065753,
"lon" : 127.1733752741,
"address" : "서울특별시 강동구 상일로 74-1 고덕천물놀이장"},
{"lat" : 37.5533558167,
"lon" : 126.9528306636,
"address" : "서울특별시 마포구 마포대로 195 ,4단지 관리사무소 앞 (아현동, 마포 래미안 푸르지오)"},
{"lat" : 37.536077517,
"lon" : 127.0733399874,
"address" : "서울특별시 광진구 뚝섬로37길 28  (자양동)"},
{"lat" : 37.4792370922,
"lon" : 126.9090378048,
"address" : "서울특별시 관악구 남부순환로 1430  (신림동, 신림푸르지오아파트)"},
{"lat" : 37.481466963,
"lon" : 127.0005381736,
"address" : "서울특별시 서초구 효령로 164  (방배동, 신동아아파트)"},
{"lat" : 37.5172337072,
"lon" : 126.9037159932,
"address" : "서울특별시 영등포구 영중로 15 타임스퀘어 이마트 영등포점 (영등포동4가)"},
{"lat" : 37.5834386509,
"lon" : 126.9977809718,
"address" : "서울특별시 종로구 자하문로19길 36, 종로구보건소, 청운효자동자치회관 (옥인동)"},
{"lat" : 37.5750720958,
"lon" : 127.0742838372,
"address" : "서울특별시 동대문구 장안벚꽃로 167"},
{"lat" : 37.5750720958,
"lon" : 127.0742838372,
"address" : "서울특별시 동대문구 장안벚꽃로 167"},
{"lat" : 37.5909881081,
"lon" : 127.0144387267,
"address" : "서울특별시 성북구 보문로 192  (삼선동4가)"},
{"lat" : 37.3677740882,
"lon" : 126.9620957662,
"address" : "경기도 안양시 동안구 경수대로 500 서울소년분류심사원 (호계동)"},
{"lat" : 37.6158320322,
"lon" : 127.0187933513,
"address" : "서울특별시 강북구 삼양로19길 113 삼각산아이원아파트 (미아동, 삼각산아이원아파트)"},
{"lat" : 37.5099254977,
"lon" : 126.9304271065,
"address" : "서울특별시 동작구 여의대방로44길 47 대방주공1차아파트 (대방동, 주공아파트)"},
{"lat" : 37.5274108867,
"lon" : 126.9172650526,
"address" : "서울특별시 영등포구 의사당대로 16 여의도 글래드호텔 (여의도동)"},
{"lat" : 37.5427144560,
"lon" : 126.9514342578,
"address" : "서울특별시 마포구 마포대로 92 글래드 마포 (도화동)"},
{"lat" : 37.5000077069,
"lon" : 126.841366963,
"address" : "서울특별시 구로구 고척로 49 제1관리사무소(분양동) (오류동, 동부골든아파트)"},
{"lat" : 37.5223416265,
"lon" : 126.8675642806,
"address" : "서울특별시 양천구 목동서로 280  (신정동, 목동신시가지아파트8단지)"},
{"lat" : 37.5039344561,
"lon" : 127.0024111972,
"address" : "서울특별시 서초구 신반포로 176  (반포동)"},
{"lat" : 37.5536189502,
"lon" : 126.969366984,
"address" : "서울특별시 용산구 청파로 378 공항철도 서울역 (동자동)"},
{"lat" : 37.6116784924,
"lon" : 126.9332680864,
"address" : "서울특별시 은평구 불광로2길 16  (불광동, 북한산현대홈타운아파트)"},
{"lat" : 37.5039344561,
"lon" : 127.0024111972,
"address" : "서울특별시 서초구 신반포로 176  (반포동)"},
{"lat" : 37.51504345,
"lon" : 127.0229029819,
"address" : "서울특별시 강남구 강남대로146길 28  (논현동, 논현아파트)"},
{"lat" : 37.6176398042,
"lon" : 127.0106018434,
"address" : "서울특별시 강북구 솔샘로 174 SK북한산시티아파트(임대) (미아동, SK북한산시티아파트)"},
{"lat" : 37.498223407,
"lon" : 127.0473969978,
"address" : "서울특별시 강남구 언주로 332 관리사무소 (역삼동, 역삼푸르지오아파트)"},
{"lat" : 37.4848852021,
"lon" : 127.0216907414,
"address" : "서울특별시 서초구 남부순환로339길 47-1  (서초동)"},
{"lat" : 37.5093683043,
"lon" : 127.0671021908,
"address" : "서울특별시 강남구 테헤란로114길 11, 강남경찰서 (대치동)"},
{"lat" : 37.6163468499,
"lon" : 127.0182648702,
"address" : "서울특별시 강북구 삼양로19길 113 삼각산아이원아파트 (미아동, 삼각산아이원아파트)"},
{"lat" : 37.6160896738,
"lon" : 127.0166683343,
"address" : "서울특별시 강북구 삼양로19길 113 삼각산아이원아파트 (미아동, 삼각산아이원아파트)"},
{"lat" : 37.4877494012,
"lon" : 126.9733830511,
"address" : "서울특별시 동작구 사당로23길 112  (사당동, 래미안 로이파크)"},
{"lat" : 37.6174410980,
"lon" : 127.0150917291,
"address" : "서울특별시 강북구 솔샘로 174 SK북한산시티아파트(임대) (미아동, SK북한산시티아파트)"},
{"lat" : 37.6446092511,
"lon" : 127.0194097453,
"address" : "서울특별시 강북구 한천로159길 8 래미안수유아파트 (수유동, 래미안수유아파트)"},
{"lat" : 37.4928092228,
"lon" : 126.8753857563,
"address" : "서울특별시 구로구 구일로4길 65  (구로동, 구로주공아파트)"},
{"lat" : 37.6170118603,
"lon" : 127.0205125820,
"address" : "서울특별시 강북구 삼양로27길 19 래미안트리베라2차아파트 (미아동, 삼성래미안트리베라아파트)"},
{"lat" : 37.6116784924,
"lon" : 126.9332680864,
"address" : "서울특별시 은평구 불광로2길 16  (불광동, 북한산현대홈타운아파트)"},
{"lat" : 37.6156185134,
"lon" : 127.0582270072,
"address" : "서울특별시 성북구 한천로 640  (장위동)"},
{"lat" : 37.556909852,
"lon" : 126.8178734241,
"address" : "서울특별시 강서구 마곡중앙1로 71 관리사무소 (마곡동, 마곡13단지힐스테이트마스터)"},
{"lat" : 37.6153952719,
"lon" : 127.0176662628,
"address" : "서울특별시 강북구 삼양로19길 113 삼각산아이원아파트 (미아동, 삼각산아이원아파트)"},
{"lat" : 37.6149173491,
"lon" : 127.0182154773,
"address" : "서울특별시 강북구 삼양로19길 113 삼각산아이원아파트 (미아동, 삼각산아이원아파트)"},
{"lat" : 37.6422590220,
"lon" : 126.9231430079,
"address" : "서울특별시 은평구 진관3로 70  (진관동, 은평뉴타운상림마을)"},
{"lat" : 37.6445285786,
"lon" : 127.0166903234,
"address" : "서울특별시 강북구 한천로159길 8 래미안수유아파트 (수유동, 래미안수유아파트)"},
{"lat" : 37.4830312909,
"lon" : 126.8457128586,
"address" : "서울특별시 구로구 오리로 1102-10  (천왕동, 천왕연지타운2단지)"},
{"lat" : 37.5984798354,
"lon" : 127.0618735167,
"address" : "서울특별시 동대문구 이문로 136 지하1층 이마트이문점 (이문동, 이문동 웰츠타워)"},
{"lat" : 37.4920666377,
"lon" : 126.8587151563,
"address" : "서울특별시 구로구 개봉로20길 6 (개봉동) 현대아파트1단지"},
{"lat" : 37.5750720958,
"lon" : 127.0742838372,
"address" : "서울특별시 동대문구 장안벚꽃로 167"},
{"lat" : 37.5750720958,
"lon" : 127.0742838372,
"address" : "서울특별시 동대문구 장안벚꽃로 167"},
{"lat" : 37.6193738817,
"lon" : 127.0090899325,
"address" : "서울특별시 강북구 솔샘로 159 벽산라이브파크아파트 제2관리사무소 (미아동, 벽산라이브파크)"},
{"lat" : 37.5081235197,
"lon" : 126.8882146491,
"address" : "서울특별시 구로구 경인로 662"},
{"lat" : 37.5750720958,
"lon" : 127.0742838372,
"address" : "서울특별시 동대문구 장안벚꽃로 167"},
{"lat" : 37.4941147813,
"lon" : 126.9765108674,
"address" : "서울특별시 동작구 동작대로29길 214 (사당동)"},
{"lat" : 37.5249361863,
"lon" : 126.6821264223,
"address" : "인천광역시 서구 봉오대로283번길 6  (가정동, 가정뉴서울아파트)"},
{"lat" : 37.4781700674,
"lon" : 127.1281384545,
"address" : "서울특별시 송파구 송파대로8길 17 관리사무소 내부"},
{"lat" : 37.5310055914,
"lon" : 127.1189516078,
"address" : "서울특별시 송파구 풍성로26길 31"},
{"lat" : 37.5364066750,
"lon" : 126.8663400793,
"address" : "서울특별시 양천구 목동중앙남로 27 (목동)"},
{"lat" : 37.5562503942,
"lon" : 127.1486253335,
"address" : "서울특별시 강동구 고덕로 201"},
{"lat" : 37.4848386662,
"lon" : 127.0897795241,
"address" : "서울특별시 강남구 광평로31길 27 (수서동, 삼성아파트)"},
{"lat" : 37.5208860347,
"lon" : 126.8928607252,
"address" : "서울특별시 영등포구 영등포로 106"},
{"lat" : 37.4882821663,
"lon" : 127.0546505001,
"address" : "서울특별시 강남구 언주로30길 56 (도곡동, 타워팰리스)"},
{"lat" : 37.4836248645,
"lon" : 127.0326848111,
"address" : "서울특별시 서초구 남부순환로 2584 서초구청 5층"},
{"lat" : 37.4885950413,
"lon" : 126.8391447944,
"address" : "서울특별시 구로구 오류로 45, 오류2동주민센터 (오류동)"},
{"lat" : 37.6147977119,
"lon" : 127.0955624548,
"address" : "서울특별시 중랑구 신내로 177(신내동)"},
{"lat" : 37.5990951777,
"lon" : 127.0956737255,
"address" : "서울특별시 중랑구 망우로 391(망우동)"},
{"lat" : 37.5439980675,
"lon" : 126.9528863487,
"address" : "서울특별시 마포구 만리재로 14"},
{"lat" : 37.6485123734,
"lon" : 127.0533034581,
"address" : "서울특별시 도봉구 노해로70길 95"},
{"lat" : 37.5759735405,
"lon" : 126.9156581894,
"address" : "서울특별시 서대문구 거북골로 120 (남가좌동, DMC센트레빌아파트)"},
{"lat" : 37.5782006025,
"lon" : 127.0346913940,
"address" : "서울특별시 동대문구 왕산로 지하 93"},
{"lat" : 37.5910857224,
"lon" : 127.0518490445,
"address" : "서울특별시 동대문구 회기로18길 2"},
{"lat" : 37.5644673599,
"lon" : 127.0290302022,
"address" : "서울특별시 성동구 왕십리로 지하 374, 상왕십리역 (하왕십리동)"},
{"lat" : 37.5115818665,
"lon" : 127.0090168975,
"address" : "서울특별시 서초구 신반포로33길 39 보건실"},
{"lat" : 37.4799289176,
"lon" : 127.0386798697,
"address" : "서울특별시 서초구 바우뫼로35길 32 신관2층"},
{"lat" : 37.5824228122,
"lon" : 126.9505661615,
"address" : "서울특별시 서대문구 통일로 지하361"},
{"lat" : 37.6417896750,
"lon" : 127.0123048376,
"address" : "서울특별시 강북구 인수봉로72길 4 수유극동아파트 (수유동, 극동아파트)"},
{"lat" : 37.6417896750,
"lon" : 127.0123048376,
"address" : "서울특별시 강북구 인수봉로72길 4 수유극동아파트 (수유동, 극동아파트)"},
{"lat" : 37.6018947753,
"lon" : 127.0648840965,
"address" : "서울특별시 동대문구 신이문로 16"},
{"lat" : 37.5522725434,
"lon" : 127.0242361782,
"address" : "서울특별시 성동구 금호로 107"},
{"lat" : 37.5178191964,
"lon" : 127.0986647294,
"address" : "서울특별시 송파구 올림픽로35길 130"},
{"lat" : 37.5009653448,
"lon" : 126.8273950228,
"address" : "서울특별시 구로구 오리로 1265(궁동)"},
{"lat" : 37.5699454530,
"lon" : 126.8990343406,
"address" : "서울특별시 마포구 월드컵로 지하 240(6호선 월드컵경기장역)"},
{"lat" : 37.6098268958,
"lon" : 127.0015719892,
"address" : "서울특별시 성북구 정릉로 161 (정릉동)"},
{"lat" : 37.54822203,
"lon" : 127.0552458981,
"address" : "서울특별시 성동구 광나루로2길 35"},
{"lat" : 37.6067988271,
"lon" : 127.1137448721,
"address" : "서울특별시 중랑구 송림길 200(망우동)"},
{"lat" : 37.5794138338,
"lon" : 127.0957617460,
"address" : "서울특별시 중랑구 사가정로72길 47(면목동)"},
{"lat" : 37.4758768309,
"lon" : 126.9919958291,
"address" : "서울특별시 서초구 효령로2길 123-5"},
{"lat" : 37.4698631514,
"lon" : 127.0238658922,
"address" : "서울특별시 서초구 바우뫼로7길 11 우면종합사회복지관"},
{"lat" : 37.6258661083,
"lon" : 127.0465898131,
"address" : "서울특별시 강북구 한천로105길 21, 번3동주민센터 (번동)"},
{"lat" : 37.6687166682,
"lon" : 127.0471334407,
"address" : "서울특별시 도봉구 마들로 656, 도봉구청 (방학동)"},
{"lat" : 37.5506937473,
"lon" : 127.0863401216,
"address" : "서울특별시 광진구 능동로 216"},
{"lat" : 37.4847887437,
"lon" : 127.0164172832,
"address" : "서울특별시 서초구 효령로 292"},
{"lat" : 37.6183996051,
"lon" : 126.9328090051,
"address" : "서울특별시 은평구 불광로 지하 129-1"},
{"lat" : 37.4913024061,
"lon" : 126.8833095889,
"address" : "서울특별시 구로구 구로동로 141 구로2동주민센터 (구로동)"},
{"lat" : 37.5069722076,
"lon" : 126.8903200273,
"address" : "서울특별시 구로구 새말로 97 신도림테크노마트 (구로동)"},
{"lat" : 37.5102341897,
"lon" : 127.0585974667,
"address" : "서울특별시 강남구 테헤란로87길 22 (삼성동)"},
{"lat" : 37.5743931576,
"lon" : 127.0398969205,
"address" : "서울특별시 동대문구 천호대로 145"},
{"lat" : 37.5566456808,
"lon" : 127.0440025054,
"address" : "서울특별시 성동구 왕십리로 222"},
{"lat" : 37.4815342384,
"lon" : 126.8934370224,
"address" : "서울특별시 구로구 디지털로26길 5 에이스하이엔드타워1차 (구로동)"},
{"lat" : 37.6011404167,
"lon" : 127.0149434853,
"address" : "서울특별시 성북구 북악산로 813 (정릉동, 정릉우성아파트)"},
{"lat" : 37.6011404167,
"lon" : 127.0149434853,
"address" : "서울특별시 성북구 북악산로 813 (정릉동, 정릉우성아파트)"},
{"lat" : 37.5541574678,
"lon" : 127.069527982,
"address" : "서울특별시 성동구 동일로43길 9, 송원초등학교 (송정동)"},
{"lat" : 37.5620759682,
"lon" : 126.9787396331,
"address" : "서울특별시 중구 남대문로5길 15"},
{"lat" : 37.5952475324,
"lon" : 126.9464223880,
"address" : "서울특별시 서대문구 세검정로1길 112 (홍은동)"},
{"lat" : 37.5901827839,
"lon" : 127.0632344165,
"address" : "서울특별시 동대문구 왕산로 303  (청량리동)"},
{"lat" : 37.5119299951,
"lon" : 126.8305338507,
"address" : "서울특별시 양천구 신정이펜1로 50 (신정동, 신정이펜하우스3단지)"},
{"lat" : 37.602218818,
"lon" : 127.1092715505,
"address" : "서울특별시 중랑구 양원역로 18(망우동, 금호어울림아파트)"},
{"lat" : 37.5862763391,
"lon" : 127.0472852066,
"address" : "서울특별시 동대문구 왕산로43다길 5"},
{"lat" : 37.5981643435,
"lon" : 127.0297498944,
"address" : "서울특별시 성북구 종암로23길 35 (종암동, 래미안세레니티)"},
{"lat" : 37.5981643435,
"lon" : 127.0297498944,
"address" : "서울특별시 성북구 종암로23길 35 (종암동, 래미안세레니티)"},
{"lat" : 37.5539193870,
"lon" : 126.9748986617,
"address" : "서울특별시 중구 후암로 98"},
{"lat" : 37.6012576929,
"lon" : 127.0697665683,
"address" : "서울특별시 동대문구 한천로58길 107 (이문동, 현대아파트)"},
{"lat" : 37.5981643435,
"lon" : 127.0297498944,
"address" : "서울특별시 성북구 종암로23길 35 (종암동, 래미안세레니티)"},
{"lat" : 37.4639707257,
"lon" : 126.8963330505,
"address" : "서울특별시 금천구 시흥대로101길 3-3 (독산동)"},
{"lat" : 37.4765547874,
"lon" : 126.9078743360,
"address" : "서울특별시 금천구 문성로 38, 독산3 치안센터 (독산동)"},
{"lat" : 37.6098781715,
"lon" : 127.0388603243,
"address" : "서울특별시 성북구 오패산로16가길 40 (하월곡동, 꿈의숲푸르지오)"},
{"lat" : 37.5662830514,
"lon" : 127.0431615145,
"address" : "서울특별시 성동구 마장로 지하 296, 마장역 지하2층 (마장동)"},
{"lat" : 37.4875323571,
"lon" : 126.9931886135,
"address" : "서울특별시 서초구 서초대로 지하 103"},
{"lat" : 37.4557176389,
"lon" : 127.0688535528,
"address" : "서울특별시 서초구 헌릉로 260"},
{"lat" : 37.5304125532,
"lon" : 126.8997902242,
"address" : "서울특별시 영등포구 당산로42길 16 당산현대5차아파트"},
{"lat" : 37.5760072969,
"lon" : 127.0714139015,
"address" : "서울특별시 동대문구 장한로27가길 66"},
{"lat" : 37.5875178503,
"lon" : 127.0427072986,
"address" : "서울특별시 동대문구 홍릉로 81"},
{"lat" : 37.5406593830,
"lon" : 127.0714118564,
"address" : "서울특별시 광진구 능동로 110"},
{"lat" : 37.4883763743,
"lon" : 127.1455237470,
"address" : "서울특별시 송파구 양산로4길 16 관리사무소"},
{"lat" : 37.5372490750,
"lon" : 127.0916707576,
"address" : "서울특별시 광진구 강변역로 18 (구의동)"},
{"lat" : 37.5688854829,
"lon" : 127.0087747747,
"address" : "서울특별시 중구 장충단로 275 두산타워 빌딩"},
{"lat" : 37.4712636533,
"lon" : 127.0420577495,
"address" : "서울특별시 서초구 언남길 8 보건실"},
{"lat" : 37.4516719332,
"lon" : 126.916887436,
"address" : "서울특별시 금천구 탑골로10길 45, 학교법인동일학원교사 (시흥동)"},
{"lat" : 37.5889958657,
"lon" : 126.9413997185,
"address" : "서울특별시 서대문구 통일로39가길 57 (홍제동) 현대아파트"},
{"lat" : 37.5153901589,
"lon" : 126.915355407,
"address" : "서울특별시 영등포구 영등포로62길 13 영등포여자고등학교"},
{"lat" : 37.5624945045,
"lon" : 127.0894380017,
"address" : "서울특별시 광진구 용마산로22길 26"},
{"lat" : 37.5857544989,
"lon" : 127.0794753618,
"address" : "서울특별시 중랑구 동일로 619(면목동) 면목5동 복합청사"},
{"lat" : 37.6058827897,
"lon" : 127.0994842103,
"address" : "서울특별시 중랑구 면목로 397(면목동)"},
{"lat" : 37.6011404167,
"lon" : 127.0149434853,
"address" : "서울특별시 성북구 북악산로 813 (정릉동, 정릉우성아파트)"},
{"lat" : 37.5539193870,
"lon" : 126.9748986617,
"address" : "서울특별시 중구 후암로 98"},
{"lat" : 37.5261588672,
"lon" : 126.7149647555,
"address" : "인천광역시 계양구 아나지로 199 효성5차뉴서울아파트"},
{"lat" : 37.5014628231,
"lon" : 127.0488737627,
"address" : "서울특별시 강남구 역삼로 313 서울도성초등학교"},
{"lat" : 37.4656567312,
"lon" : 126.8997128143,
"address" : "서울특별시 금천구 시흥대로104길 31, 독산초등학교 (독산동)"},
{"lat" : 37.5951874186,
"lon" : 126.9490268018,
"address" : "서울특별시 서대문구 세검정로 78-19 홍제배드민턴장"},
{"lat" : 37.5839456071,
"lon" : 127.0674045638,
"address" : "서울특별시 동대문구 한천로 247, 휘경여자중고등학교 (휘경동)"},
{"lat" : 37.5981643435,
"lon" : 127.0297498944,
"address" : "서울특별시 성북구 종암로23길 35 (종암동, 래미안세레니티)"},
{"lat" : 37.5981643435,
"lon" : 127.0297498944,
"address" : "서울특별시 성북구 종암로23길 35 (종암동, 래미안세레니티)"},
{"lat" : 37.4553388190,
"lon" : 126.9046408024,
"address" : "서울특별시 금천구 독산로23길 26, 서울시흥초등학교 (시흥동)"},
{"lat" : 37.5357288700,
"lon" : 127.1535497920,
"address" : "서울특별시 강동구 천호대로206길 87"},
{"lat" : 37.4713732336,
"lon" : 126.9246160917,
"address" : "서울특별시 관악구 난곡로34길 80"},
{"lat" : 37.5565892427,
"lon" : 127.0499781162,
"address" : "서울특별시 성동구 왕십리로 222"},
{"lat" : 37.5688854829,
"lon" : 127.0087747747,
"address" : "서울특별시 중구 장충단로 275 두산타워 빌딩"},
{"lat" : 37.5357263479,
"lon" : 127.0956922769,
"address" : "서울특별시 광진구 광나루로56길 85"},
{"lat" : 37.5379926071,
"lon" : 127.0919839534,
"address" : "서울특별시 광진구 강변역로 17"},
{"lat" : 37.5939495015,
"lon" : 127.0548901682,
"address" : "서울특별시 동대문구 경희대로 26 (회기동) 교무실 앞"},
{"lat" : 37.5939495015,
"lon" : 127.0548901682,
"address" : "서울특별시 동대문구 경희대로 26 (회기동) 경희고등학교 보건실 앞"},
{"lat" : 37.5637906701,
"lon" : 126.9089022746,
"address" : "서울특별시 마포구 성산로 128  (성산동)"},
{"lat" : 37.5567254890,
"lon" : 127.1574539417,
"address" : "서울특별시 강동구 고덕로 285"},
{"lat" : 37.5163409961,
"lon" : 126.8334325030,
"address" : "서울특별시 양천구 신월로 97 (신월동)"},
{"lat" : 37.6500638786,
"lon" : 127.0442026097,
"address" : "서울특별시 도봉구 해등로 50 (창동) 주공3단지아파트"},
{"lat" : 37.6855674262,
"lon" : 127.0499330226,
"address" : "서울특별시 도봉구 마들로 849"},
{"lat" : 37.4901292070,
"lon" : 127.0715649971,
"address" : "서울특별시 강남구 개포로 516 (개포동, 주공아파트)"},
{"lat" : 37.4889350841,
"lon" : 127.0720387641,
"address" : "서울특별시 강남구 개포로 516 (개포동, 주공아파트)"},
{"lat" : 37.4887855898,
"lon" : 127.0733841855,
"address" : "서울특별시 강남구 개포로 516 (개포동, 주공아파트)"},
{"lat" : 37.5743931576,
"lon" : 127.0398969205,
"address" : "서울특별시 동대문구 천호대로 145"},
{"lat" : 37.5568437135,
"lon" : 127.0445005939,
"address" : "서울특별시 성동구 왕십리로 222"},
{"lat" : 37.5566432738,
"lon" : 127.0500460574,
"address" : "서울특별시 성동구 왕십리로 222"},
{"lat" : 37.4885783120,
"lon" : 126.8388718845,
"address" : "서울특별시 구로구 오리로10길 44-3 오류보건지소 (오류동)"},
{"lat" : 37.5708119884,
"lon" : 127.0214620759,
"address" : "서울특별시 중구 청계천로 400 지하2층 (황학동, 롯데캐슬베네치아)"},
{"lat" : 37.4953574869,
"lon" : 126.8460357988,
"address" : "서울특별시 구로구 경인로20가길 38, 2층 (오류동)"},
{"lat" : 37.6571320178,
"lon" : 127.0242577564,
"address" : "서울특별시 도봉구 해등로 286-5  (방학동, 우성1차아파트)"},
{"lat" : 37.6184130964,
"lon" : 127.0364770613,
"address" : "서울특별시 강북구 오현로 56  (미아동, 꿈의숲 롯데캐슬)"},
{"lat" : 37.6186809798,
"lon" : 127.0202865023,
"address" : "서울특별시 강북구 삼양로27길 19 래미안트리베라2차아파트 (미아동, 삼성래미안트리베라아파트)"},
{"lat" : 37.5530803783,
"lon" : 126.9637947247,
"address" : "서울특별시 중구 만리재로 175  (만리동2가, 서울역센트럴자이)"},
{"lat" : 37.5479536894,
"lon" : 127.1702182581,
"address" : "서울특별시 강동구 천호대로219길 61  (상일동)"},
{"lat" : 37.5735042429,
"lon" : 126.9789899542,
"address" : "서울특별시 종로구 종로1길 36  (수송동)"},
{"lat" : 37.6166489209,
"lon" : 127.0195776977,
"address" : "서울특별시 강북구 삼양로27길 19 래미안트리베라2차아파트 (미아동, 삼성래미안트리베라아파트)"},
{"lat" : 37.6139408037,
"lon" : 127.0207269360,
"address" : "서울특별시 강북구 삼양로19길 25 (미아동, 삼성래미안트리베라1차아파트)"},
{"lat" : 37.6278637071,
"lon" : 127.0285558297,
"address" : "서울특별시 강북구 솔매로49길 20"},
{"lat" : 37.643255314,
"lon" : 127.0743516806,
"address" : "서울특별시 노원구 노원로16길 15 관리사무소 (하계동, 중계주공9단지아파트)"},
{"lat" : 37.5250897228,
"lon" : 127.0513010495,
"address" : "서울특별시 강남구 도산대로 529, KRA프라자 (청담동)"},
{"lat" : 37.6141021239,
"lon" : 127.0910356091,
"address" : "서울특별시 중랑구 신내로19길 42  (신내동, 신내6단지신내아파트)"},
{"lat" : 37.6421434726,
"lon" : 127.0026603955,
"address" : "서울특별시 강북구 4.19로 123 (수유동)"},
{"lat" : 37.6362363489,
"lon" : 127.0303406096,
"address" : "서울특별시 강북구 한천로123길 26 강북북부시장"},
{"lat" : 37.4816700674,
"lon" : 127.1448775932,
"address" : "서울특별시 송파구 위례광장로 215  (장지동, 위례스타힐스)"},
{"lat" : 37.5778411834,
"lon" : 126.9889736145,
"address" : "서울특별시 종로구 율곡로 89  (원서동)"},
{"lat" : 37.4854115288,
"lon" : 127.0547066388,
"address" : "서울특별시 강남구 언주로 110  (개포동, 경남아파트)"},
{"lat" : 37.6108538582,
"lon" : 127.0298682056,
"address" : "서울특별시 성북구 도봉로 17  (길음동)"},
{"lat" : 37.3677740882,
"lon" : 126.9620957662,
"address" : "경기도 안양시 동안구 경수대로 500 서울소년분류심사원 (호계동)"},
{"lat" : 37.5536189502,
"lon" : 126.969366984,
"address" : "서울특별시 용산구 청파로 378 공항철도 서울역 (동자동)"},
{"lat" : 37.5536189502,
"lon" : 126.969366984,
"address" : "서울특별시 용산구 청파로 378 공항철도 서울역 (동자동)"},
{"lat" : 37.6183528114,
"lon" : 127.0157534023,
"address" : "서울특별시 강북구 삼양로27길 95 미아두산위브트레지움 (미아동, 두산위브트레지움아파트)"},
{"lat" : 37.5546048272,
"lon" : 127.0190440324,
"address" : "서울특별시 성동구 금호로 173  (금호동2가, 신금호파크자이)"},
{"lat" : 37.6024237068,
"lon" : 127.0317492231,
"address" : "서울특별시 성북구 종암로27길 3  (종암동)"},
{"lat" : 37.5039853117,
"lon" : 126.9424032243,
"address" : "서울특별시 동작구 상도로30길 40  (상도동, 상도2차두산위브트레지움아파트)"},
{"lat" : 37.5019015289,
"lon" : 126.9223642741,
"address" : "서울특별시 동작구 대방동1길 46  (대방동)"},
{"lat" : 37.5513213989,
"lon" : 127.1076038079,
"address" : "서울특별시 광진구 아차산로 637 정문초소 (광장동, 워커힐아파트)"},
{"lat" : 37.5542775350,
"lon" : 127.0228776367,
"address" : "서울특별시 성동구 금호로 140  (금호동1가)"},
{"lat" : 37.6158458790,
"lon" : 127.0178144066,
"address" : "서울특별시 강북구 삼양로19길 113 삼각산아이원아파트 (미아동, 삼각산아이원아파트)"},
{"lat" : 37.6154115222,
"lon" : 127.0183401888,
"address" : "서울특별시 강북구 삼양로19길 113 삼각산아이원아파트 (미아동, 삼각산아이원아파트)"},
{"lat" : 37.4873181732,
"lon" : 127.1031067143,
"address" : "서울특별시 강남구 광평로 280 로즈데일 (수서동)"},
{"lat" : 37.6182024517,
"lon" : 127.0108171332,
"address" : "서울특별시 강북구 솔샘로 174 SK북한산시티아파트"},
{"lat" : 37.5581948166,
"lon" : 126.8618193441,
"address" : "서울특별시 강서구 양천로 559  (가양동)"},
{"lat" : 37.6182418738,
"lon" : 127.0107746632,
"address" : "서울특별시 강북구 솔샘로 174 SK북한산시티아파트"},
{"lat" : 37.4928092228,
"lon" : 126.8753857563,
"address" : "서울특별시 구로구 구일로2길 60  (구로동, 구일우성아파트)"},
{"lat" : 37.6698591615,
"lon" : 127.0470072146,
"address" : "서울특별시 도봉구 마들로 684-20  (도봉동, 서원아파트)"},
{"lat" : 37.4624678886,
"lon" : 127.0369482493,
"address" : "서울특별시 서초구 매헌로 16  (양재동)"},
{"lat" : 37.5665912195,
"lon" : 127.0240823503,
"address" : "서울특별시 성동구 왕십리로 410 생활지원센터 (하왕십리동, 센트라스)"},
{"lat" : 37.483592417,
"lon" : 127.0887921073,
"address" : "서울특별시 강남구 광평로 144 서울시립청소년수련관 (수서동)"},
{"lat" : 37.5992356220,
"lon" : 127.0912620901,
"address" : "서울특별시 중랑구 망우로55길 11-10 번지"},
{"lat" : 37.5464517694,
"lon" : 127.0257642135,
"address" : "서울특별시 성동구 독서당로 344 109동 1층 (금호동4가, 힐스테이트서울숲리버)"},
{"lat" : 37.5481113486,
"lon" : 127.0158925087,
"address" : "서울특별시 성동구 동호로 지하 104"},
{"lat" : 37.5688854829,
"lon" : 127.0087747747,
"address" : "서울특별시 중구 장충단로 275 지하3층 종합관제센터"},
{"lat" : 37.5688854829,
"lon" : 127.0087747747,
"address" : "서울특별시 중구 장충단로 275 지하2층 4번계단"},
{"lat" : 37.4765488043,
"lon" : 127.1116071610,
"address" : "서울특별시 강남구 자곡로 260"},
{"lat" : 37.4916411882,
"lon" : 127.0714149165,
"address" : "서울특별시 강남구 영동대로 101  (개포동)"},
{"lat" : 37.5845036133,
"lon" : 127.0945591047,
"address" : "서울특별시 중랑구 용마산로 364 중화중학교"},
{"lat" : 37.6754433563,
"lon" : 127.0880544420,
"address" : "서울특별시 노원구 덕릉로143길 88 당고개풋살장 (상계동)"},
{"lat" : 37.6251942316,
"lon" : 127.0288725561,
"address" : "서울특별시 강북구 솔매로52길 31 (미아동)"},
{"lat" : 37.5853291653,
"lon" : 127.0193875500,
"address" : "서울특별시 성북구 보문로 지하 116 (보문동1가)"},
{"lat" : 37.5927177459,
"lon" : 127.0164771968,
"address" : "서울특별시 성북구 동소문로 지하 102 (동선동4가)"},
{"lat" : 37.5852849599,
"lon" : 127.0954477259,
"address" : "서울특별시 중랑구 용마산로 380  (면목동)"},
{"lat" : 37.6170017897,
"lon" : 127.0314654581,
"address" : "서울특별시 강북구 오현로 9 송중초등학교"},
{"lat" : 37.5317011498,
"lon" : 126.9143096894,
"address" : "서울특별시 영등포구 의사당대로 1 국회사무처"},
{"lat" : 37.4685206869,
"lon" : 126.9404945976,
"address" : "서울특별시 관악구 대학7길 52  (신림동)"},
{"lat" : 37.5171443813,
"lon" : 127.0121768823,
"address" : "서울특별시 서초구 나루터로 15 (잠원동)  보건실 앞"},
{"lat" : 37.6503797637,
"lon" : 127.0374309577,
"address" : "서울특별시 도봉구 도봉로120길 16"},
{"lat" : 37.6398419587,
"lon" : 127.0229457701,
"address" : "서울특별시 강북구 노해로 50"},
{"lat" : 37.5864813123,
"lon" : 127.0758032680,
"address" : "서울특별시 중랑구 중랑천로 20(면목동, 면목한신아파트)"},
{"lat" : 37.6060448642,
"lon" : 127.0938092870,
"address" : "서울특별시 중랑구 신내로 115(신내동, 신내10단지신내아파트)"},
{"lat" : 37.6060448642,
"lon" : 127.0938092870,
"address" : "서울특별시 중랑구 신내로 127(신내동, 신내9단지신내아파트)"},
{"lat" : 37.5589415443,
"lon" : 126.8103986987,
"address" : "서울특별시 강서구 송정로 45-1 (공항동)"},
{"lat" : 37.5317037841,
"lon" : 126.9180205944,
"address" : "서울특별시 영등포구 의사당대로 1 국회사무처"},
{"lat" : 37.5688854829,
"lon" : 127.0087747747,
"address" : "서울특별시 중구 장충단로 275 두타빌딩"},
{"lat" : 37.5688854829,
"lon" : 127.0087747747,
"address" : "서울특별시 중구 장충단로 275 두타빌딩"},
{"lat" : 37.6060448642,
"lon" : 127.0938092870,
"address" : "서울특별시 중랑구 봉화산로 190(신내동)"},
{"lat" : 37.5293757591,
"lon" : 126.7328321513,
"address" : "인천광역시 계양구 봉오대로744번길 7  (작전동, 뉴서울1차아파트)"},
{"lat" : 37.5580509166,
"lon" : 126.824081809,
"address" : "서울특별시 강서구 마곡중앙로 33  (마곡동, 마곡엠밸리14단지)"},
{"lat" : 37.6321719988,
"lon" : 127.0388101874,
"address" : "서울특별시 강북구 한천로 897 강북구보건소 (번동)"},
{"lat" : 37.5749090612,
"lon" : 126.9752085858,
"address" : "서울특별시 종로구 세종대로 209"},
{"lat" : 37.6160823609,
"lon" : 127.0154539032,
"address" : "서울특별시 강북구 삼양로19길 141 서울삼각산초등학교"},
{"lat" : 37.5762189117,
"lon" : 126.9846584872,
"address" : "서울특별시 종로구 율곡로 지하 62, 3호선 안국역 (안국동)"},
{"lat" : 37.5171282419,
"lon" : 127.0113884649,
"address" : "서울특별시 서초구 나루터로 15 (잠원동)  보건실 앞"},
{"lat" : 37.6136339765,
"lon" : 127.0951396331,
"address" : "서울특별시 중랑구 신내로 155(신내동, 신내8단지두산.화성아파트)"},
{"lat" : 37.6531728307,
"lon" : 127.0311634141,
"address" : "서울특별시 도봉구 노해로49길 69"},
{"lat" : 37.6443353044,
"lon" : 127.0265866078,
"address" : "서울특별시 강북구 한천로150길 76 수유3동파출소"},
{"lat" : 37.6511067333,
"lon" : 127.0647591773,
"address" : "서울특별시 노원구 동일로216길 66 서울상수초등학교 (상계동)"},
{"lat" : 37.4821304520,
"lon" : 127.1163821829,
"address" : "서울특별시 송파구 정의로 37 서울동부구치소 (문정동)"},
{"lat" : 37.5688854829,
"lon" : 127.0087747747,
"address" : "서울특별시 중구 장충단로 275 지하7층(미화사무실)"},
{"lat" : 37.5560114394,
"lon" : 127.131304691,
"address" : "서울특별시 강동구 올림픽로104길 41  (암사동, 한강현대아파트)"},
{"lat" : 37.4835167747,
"lon" : 127.1313088741,
"address" : "서울특별시 송파구 충민로 151 송파파인타운 2단지"},
{"lat" : 37.4889345232,
"lon" : 127.1459092774,
"address" : "서울특별시 송파구 양산로4길 16 관리사무소"},
{"lat" : 37.5375712576,
"lon" : 127.0705761545,
"address" : "서울특별시 광진구 능동로 76 의회 (자양동)"},
{"lat" : 37.5048070495,
"lon" : 127.0275323021,
"address" : "서울특별시 강남구 봉은사로 130 르메르디앙서울호텔"},
{"lat" : 37.4765488043,
"lon" : 127.1116071610,
"address" : "서울특별시 강남구 자곡로 260"},
{"lat" : 37.5796029818,
"lon" : 126.8822526569,
"address" : "서울특별시 마포구 월드컵로42길 30"},
{"lat" : 37.6053186977,
"lon" : 127.0952026533,
"address" : "서울특별시 중랑구 신내로 51(신내동, 성원아파트)"},
{"lat" : 37.4904351088,
"lon" : 127.0722889700,
"address" : "서울특별시 강남구 개포로 516 (개포동, 주공아파트)"},
{"lat" : 37.4894803929,
"lon" : 127.0717113739,
"address" : "서울특별시 강남구 개포로 516 (개포동, 주공아파트)"},
{"lat" : 37.6043580382,
"lon" : 126.9056649134,
"address" : "서울특별시 은평구 갈현로7길 49"},
{"lat" : 37.5461900808,
"lon" : 127.0845074039,
"address" : "서울특별시 광진구 능동로 216"},
{"lat" : 37.5519094202,
"lon" : 127.0740684565,
"address" : "서울특별시 광진구 군자로 114"},
{"lat" : 37.5601504685,
"lon" : 127.0814763512,
"address" : "서울특별시 광진구 능동로 346"},
{"lat" : 37.5697479738,
"lon" : 126.9611424234,
"address" : "서울특별시 서대문구 독립문로 25-1"},
{"lat" : 37.4882632858,
"lon" : 127.0729313870,
"address" : "서울특별시 강남구 개포로 516 (개포동, 주공아파트)"},
{"lat" : 37.4857059573,
"lon" : 126.8955115488,
"address" : "서울특별시 구로구 디지털로33길 11 에이스테크노타워8차 (구로동)"},
{"lat" : 37.4937559963,
"lon" : 127.0130177932,
"address" : "서울특별시 서초구 서초대로 287"},
{"lat" : 37.5818716077,
"lon" : 127.0569780106,
"address" : "서울특별시 동대문구 전농로20길 31"},
{"lat" : 37.5607979388,
"lon" : 126.8508314177,
"address" : "서울특별시 강서구 공항대로43길 104 관리사무소"},
{"lat" : 37.5049147321,
"lon" : 126.9968242353,
"address" : "서울특별시 서초구 신반포로19길 23 보건실"},
{"lat" : 37.4750402899,
"lon" : 127.0317992667,
"address" : "서울특별시 서초구 바우뫼로 91"},
{"lat" : 37.5746077927,
"lon" : 126.9556110960,
"address" : "서울특별시 서대문구 통일로 251 (현저동)"},
{"lat" : 37.4525178069,
"lon" : 126.9153675373,
"address" : "서울특별시 금천구 탑골로 47-3, 탑동초등학교 (시흥동)"},
{"lat" : 37.5113107836,
"lon" : 127.0981403954,
"address" : "서울특별시 송파구 올림픽로 240 롯데월드 매직아일랜드"},
{"lat" : 37.5646953177,
"lon" : 126.8184339904,
"address" : "서울특별시 강서구 마곡중앙3로 74"},
{"lat" : 37.5779137772,
"lon" : 127.0003984899,
"address" : "서울특별시 종로구 대학로 101"},
{"lat" : 37.5545330292,
"lon" : 127.0200631278,
"address" : "서울특별시 성동구 금호동2가 223-1 신금호역"},
{"lat" : 37.5007662252,
"lon" : 126.8959536728,
"address" : "서울특별시 영등포구 도신로4길 32 신영초등학교"},
{"lat" : 37.6041981090,
"lon" : 127.0960154721,
"address" : "서울특별시 중랑구 신내로 56(신내동)"},
{"lat" : 37.6056976178,
"lon" : 127.0990841844,
"address" : "서울특별시 중랑구 용마산로 669(신내동, 신내데시앙아파트)"},
{"lat" : 37.6151424895,
"lon" : 127.0077019362,
"address" : "서울특별시 성북구 보국문로 116 (정릉동, 정릉힐스테이트3차)"},
{"lat" : 37.5199577644,
"lon" : 126.9122281438,
"address" : "서울특별시 영등포구 버드나루로 13"},
{"lat" : 37.5879447671,
"lon" : 127.0808680631,
"address" : "서울특별시 중랑구 겸재로23길 27(면목동)"},
{"lat" : 37.5680152989,
"lon" : 127.0059171312,
"address" : "서울특별시 중구 을지로 245, 국립중앙의료원 (을지로6가)"},
{"lat" : 37.5870949697,
"lon" : 127.0617463416,
"address" : "서울특별시 동대문구 망우로 18나길 20"},
{"lat" : 37.5784086146,
"lon" : 127.0243533269,
"address" : "서울특별시 동대문구 안암로 6, 대광중고등학교 (신설동)"},
{"lat" : 37.4927262043,
"lon" : 126.8730262688,
"address" : "서울특별시 구로구 구일로 68, 구일초등학교 (구로동)"},
{"lat" : 37.6161217853,
"lon" : 127.0337802291,
"address" : "서울특별시 강북구 오패산로 162, 송중동 주민센터 (미아동)"},
{"lat" : 37.6157136560,
"lon" : 127.036733986,
"address" : "서울특별시 강북구 월계로21가길 41"},
{"lat" : 37.6329148537,
"lon" : 127.0097063255,
"address" : "서울특별시 강북구 화계사길 63 화계중학교"},
{"lat" : 37.6136064271,
"lon" : 127.0278299209,
"address" : "서울특별시 강북구 도봉로13가길 19 영훈고등학교"},
{"lat" : 37.5302034863,
"lon" : 127.1220365159,
"address" : "서울특별시 강동구 성내로13"},
{"lat" : 37.5064629488,
"lon" : 126.8582749779,
"address" : "서울특별시 구로구 중앙로15길 30, 고척지구대 (고척동)"},
{"lat" : 37.4915381618,
"lon" : 126.8386393731,
"address" : "서울특별시 구로구 경인로8길 64 (오류동, 영풍마드레빌아파트)"},
{"lat" : 37.5094205180,
"lon" : 126.8877422032,
"address" : "서울특별시 구로구 경인로 661(신도림동)"},
{"lat" : 37.5370003762,
"lon" : 127.0729607226,
"address" : "서울특별시 광진구 아차산로 262 ."},
{"lat" : 37.5106838182,
"lon" : 126.8448415976,
"address" : "서울특별시 양천구 신정로 213 (신정동)"},
{"lat" : 37.5779137772,
"lon" : 127.0003984899,
"address" : "서울특별시 종로구 대학로 101"},
{"lat" : 37.6014940632,
"lon" : 127.031078429,
"address" : "서울특별시 성북구 종암로25길 30 (종암동, 삼성래미안)"},
{"lat" : 37.6522926586,
"lon" : 127.0493803957,
"address" : "서울특별시 도봉구 노해로67길 14, 한국마사회창동지점 (창동)"},
{"lat" : 37.6648142022,
"lon" : 127.0541716035,
"address" : "서울특별시 노원구 한글비석로 566 (상계동)"},
{"lat" : 37.5779137772,
"lon" : 127.0003984899,
"address" : "서울특별시 종로구 대학로 101"},
{"lat" : 37.5937747637,
"lon" : 127.0507412427,
"address" : "서울특별시 동대문구 경희대로 23 서관 7층 의용공학팀"},
{"lat" : 37.5978001561,
"lon" : 127.0719918529,
"address" : "서울특별시 중랑구 중랑천로 142 326-114"},
{"lat" : 37.5457129664,
"lon" : 127.1422539531,
"address" : "서울특별시 강동구 양재대로 1571"},
{"lat" : 37.5216973400,
"lon" : 126.8343032218,
"address" : "서울특별시 양천구 남부순환로70길 16-3, 신월7동주민센터 (신월동)"},
{"lat" : 37.6410331707,
"lon" : 127.0421430740,
"address" : "서울특별시 도봉구 덕릉로62길 13 (창동) 신창아파트"},
{"lat" : 37.5650848810,
"lon" : 127.085778338,
"address" : "서울특별시 광진구 용마산로 127"},
{"lat" : 37.5857885388,
"lon" : 127.0410306656,
"address" : "서울특별시 동대문구 홍릉로15길 50 정화여자상업고등학교"},
{"lat" : 37.4954359591,
"lon" : 127.0640274433,
"address" : "서울특별시 강남구 삼성로 212 (대치동, 은마아파트)"},
{"lat" : 37.5553084652,
"lon" : 127.0163105142,
"address" : "서울특별시 중구 동호로10길 30"},
{"lat" : 37.5182205996,
"lon" : 126.9368608587,
"address" : "서울특별시 영등포구 63로 10 여의도성모병원"},
{"lat" : 37.5429362307,
"lon" : 126.8824461323,
"address" : "서울특별시 양천구 목동중앙로 204 (목동)"},
{"lat" : 37.5131186983,
"lon" : 126.8550616389,
"address" : "서울특별시 양천구 신정로 306 (신정동)"},
{"lat" : 37.6798879157,
"lon" : 127.0534615793,
"address" : "서울특별시 노원구 동일로245가길 41 (상계동) 은빛2단지아파트"},
{"lat" : 37.6188524390,
"lon" : 127.0752561818,
"address" : "서울특별시 노원구 동일로 994 (공릉동)"},
{"lat" : 37.5270261910,
"lon" : 126.8899778675,
"address" : "서울특별시 영등포구 선유로33길 10 양평동대우이안아파트"},
{"lat" : 37.4496304163,
"lon" : 126.9146113380,
"address" : "서울특별시 금천구 금하로 764"},
{"lat" : 37.5491076077,
"lon" : 127.0736017126,
"address" : "서울특별시 광진구 군자로 114"},
{"lat" : 37.5370003762,
"lon" : 127.0729607226,
"address" : "서울특별시 광진구 아차산로 262 ."},
{"lat" : 37.5592538175,
"lon" : 126.8495578367,
"address" : "서울특별시 강서구 공항대로43길 39 관리사무소"},
{"lat" : 37.5691083389,
"lon" : 127.032672323,
"address" : "서울특별시 성동구 무학로 50 1층 경비실 정문"},
{"lat" : 37.4808989988,
"lon" : 127.0903808160,
"address" : "서울특별시 강남구 광평로34길 55 (수서동, 강남데시앙포레아파트)"},
{"lat" : 37.5318810579,
"lon" : 127.1156312759,
"address" : "서울특별시 송파구 풍성로20길 44"},
{"lat" : 37.5941495274,
"lon" : 127.0548778596,
"address" : "서울특별시 동대문구 경희대로 26, 경희대학교,경희초,중,고,여자중고등학교 (회기동)"},
{"lat" : 37.5135757610,
"lon" : 126.9408943186,
"address" : "서울특별시 동작구 노량진로 지하130 9호선노량진역 (노량진동)"},
{"lat" : 37.5414331538,
"lon" : 126.9470538373,
"address" : "서울특별시 마포구 마포대로 53"},
{"lat" : 37.4890063478,
"lon" : 126.9922431891,
"address" : "서울특별시 서초구 방배로 173 보건분소"},
{"lat" : 37.5620759682,
"lon" : 126.9787396331,
"address" : "서울특별시 중구 남대문로5길 15"},
{"lat" : 37.5852200630,
"lon" : 127.0697289544,
"address" : "서울특별시 동대문구 겸재로 21 (휘경동) 보건교육실 앞"},
{"lat" : 37.5093713415,
"lon" : 127.1218760614,
"address" : "서울특별시 송파구 오금로29길 31"},
{"lat" : 37.4937118388,
"lon" : 127.1382698362,
"address" : "서울특별시 송파구 문정로 176 송파배드민턴체육관"},
{"lat" : 37.4898583119,
"lon" : 127.0725371777,
"address" : "서울특별시 강남구 개포로 516 (개포동, 주공아파트)"},
{"lat" : 37.6174508249,
"lon" : 127.0219965039,
"address" : "서울특별시 강북구 삼양로24길 19"},
{"lat" : 37.5557078404,
"lon" : 127.0461069856,
"address" : "서울특별시 성동구 왕십리로 222"},
{"lat" : 37.5539412459,
"lon" : 126.9371984433,
"address" : "서울특별시 마포구 신촌로 지하90 (2호선 신촌역)"},
{"lat" : 37.4892767957,
"lon" : 126.8892417434,
"address" : "서울특별시 구로구 도림로 59  (구로동, 구로두산아파트)"},
{"lat" : 37.4807665275,
"lon" : 126.98278765,
"address" : "서울특별시 서초구 방배천로 48 5층 복도 (방배동)"},
{"lat" : 37.5715473554,
"lon" : 127.0461076926,
"address" : "서울특별시 동대문구 천호대로55길 11 관리사무소 (답십리동, 힐스테이트청계아파트)"},
{"lat" : 37.5321118595,
"lon" : 127.0694532058,
"address" : "서울특별시 광진구 능동로4길 40 ."},
{"lat" : 37.5774982962,
"lon" : 126.9669436368,
"address" : "서울특별시 종로구 사직로9길 19 (필운동)"},
{"lat" : 37.6452932981,
"lon" : 127.0825437232,
"address" : "서울특별시 노원구 중계로 106 불암도서관 (중계동)"},
{"lat" : 37.6162025028,
"lon" : 127.0828485190,
"address" : "서울특별시 중랑구 숙선옹주로 45  (묵동, e-편한세상화랑대)"},
{"lat" : 37.6454360306,
"lon" : 127.0186235908,
"address" : "서울특별시 강북구 한천로 1131 아쿠아산소사우나"},
{"lat" : 37.6407604527,
"lon" : 127.0386951205,
"address" : "서울특별시 도봉구 덕릉로59길 18 1층 로비 (창동)"},
{"lat" : 37.6432030364,
"lon" : 127.0023658368,
"address" : "서울특별시 강북구 4.19로28길 10 북한산국립공원 수유분소"},
{"lat" : 37.6157807423,
"lon" : 127.0171752380,
"address" : "서울특별시 강북구 삼양로19길 113 삼각산아이원아파트 (미아동, 삼각산아이원아파트)"},
{"lat" : 37.6153260056,
"lon" : 127.0172290472,
"address" : "서울특별시 강북구 삼양로19길 113 삼각산아이원아파트 (미아동, 삼각산아이원아파트)"},
{"lat" : 37.6143218733,
"lon" : 127.0182967680,
"address" : "서울특별시 강북구 삼양로19길 113 삼각산아이원아파트 (미아동, 삼각산아이원아파트)"},
{"lat" : 37.4830380537,
"lon" : 126.8509816246,
"address" : "서울특별시 구로구 개봉로1다길 16-9 (개봉동)"},
{"lat" : 37.5042123156,
"lon" : 126.9596745000,
"address" : "서울특별시 동작구 서달로 123  (흑석동)"},
{"lat" : 37.5042123156,
"lon" : 126.9596745000,
"address" : "서울특별시 동작구 서달로 123  (흑석동)"},
{"lat" : 37.5687320182,
"lon" : 127.1766541624,
"address" : "서울특별시 강동구 아리수로97길 68  (강일동, 강일리버파크2단지아파트)"},
{"lat" : 37.6449158055,
"lon" : 127.0253721426,
"address" : "서울특별시 강북구 한천로150길 67 본관1층 보건실 출입문 옆"},
{"lat" : 37.6141021239,
"lon" : 127.0910356091,
"address" : "서울특별시 중랑구 신내로19길 42  (신내동, 신내6단지신내아파트)"},
{"lat" : 37.6292736288,
"lon" : 127.0405164547,
"address" : "서울특별시 강북구 오현로 204 번동초등학교 (번동)"},
{"lat" : 37.6333342789,
"lon" : 127.0336475378,
"address" : "서울특별시 강북구 한천로115길 20 번동5단지종합사회복지관 (번동, 번동주공5단지아파트)"},
{"lat" : 37.6210230102,
"lon" : 127.0180511358,
"address" : "서울특별시 강북구 솔샘로47길 21 삼양교회 1층 로비"},
{"lat" : 37.6130900493,
"lon" : 127.0991891396,
"address" : "서울특별시 중랑구 신내로 156  (신내동)"},
{"lat" : 37.6130900493,
"lon" : 127.0991891396,
"address" : "서울특별시 중랑구 신내로 156  (신내동)"},
{"lat" : 37.6482609240,
"lon" : 127.0489856596,
"address" : "서울특별시 도봉구 노해로66길 21  (창동, 삼성아파트)"},
{"lat" : 37.5669953221,
"lon" : 126.8285204897,
"address" : "서울특별시 강서구 마곡중앙로 150  (마곡동)"},
{"lat" : 37.5204015064,
"lon" : 127.1350544193,
"address" : "서울특별시 송파구 양재대로 1278 보성중학교"},
{"lat" : 37.5512609942,
"lon" : 127.1440027411,
"address" : "서울특별시 강동구 양재대로 지하 1632  (명일동)"},
{"lat" : 37.5345276026,
"lon" : 127.0736507408,
"address" : "서울특별시 광진구 뚝섬로 569"},
{"lat" : 37.5254397586,
"lon" : 127.1165897085,
"address" : "서울특별시 송파구 올림픽로43길 20"},
{"lat" : 37.5028259532,
"lon" : 126.8560654538,
"address" : "서울특별시 구로구 고척로52길 48  (고척동, 고척대우아파트)"},
{"lat" : 37.624103261,
"lon" : 127.0379751027,
"address" : "서울특별시 강북구 오현로 128 번동 동문아파트 (번동, 번동동문아파트)"},
{"lat" : 37.6236101538,
"lon" : 127.0210241397,
"address" : "서울특별시 강북구 삼양로54길 51 출입문 안쪽"},
{"lat" : 37.5051227287,
"lon" : 126.8821932999,
"address" : "서울특별시 구로구 신도림로 16  (신도림동, 신도림대림1,2차아파트)"},
{"lat" : 37.5599979775,
"lon" : 126.862821054,
"address" : "서울특별시 강서구 허준로 224"},
{"lat" : 37.5573168540,
"lon" : 126.8273022616,
"address" : "서울특별시 강서구 마곡중앙로 36 (마곡동) 마곡엠밸리15단지"},
{"lat" : 37.5586300824,
"lon" : 127.1117068379,
"address" : "서울특별시 광진구 워커힐로 177  (광장동)"},
{"lat" : 37.6149781473,
"lon" : 127.0177468078,
"address" : "서울특별시 강북구 삼양로19길 113 삼각산아이원아파트 (미아동, 삼각산아이원아파트)"},
{"lat" : 37.5706959726,
"lon" : 126.9137986645,
"address" : "서울특별시 서대문구 수색로4가길 23 시립서대문농아인복지관 1층 (남가좌동)"},
{"lat" : 37.5297290569,
"lon" : 126.9649198235,
"address" : "서울특별시 용산구 한강대로23길 55, 용산역 (한강로3가)"},
{"lat" : 37.5104544082,
"lon" : 127.1127434359,
"address" : "서울특별시 송파구 백제고분로 446 송파나루역 (방이동)"},
{"lat" : 37.4827956002,
"lon" : 127.1179932406,
"address" : "서울특별시 송파구 정의로 30"},
{"lat" : 37.5660360480,
"lon" : 127.0720506926,
"address" : "서울특별시 동대문구 장한로14길 61 (장안동 353-1)"},
{"lat" : 37.6294576012,
"lon" : 127.0374353832,
"address" : "서울특별시 강북구 오현로 187-25 강북구민운동장"},
{"lat" : 37.6179105978,
"lon" : 127.0164777710,
"address" : "서울특별시 강북구 삼양로27길 95 미아두산위브트레지움 (미아동, 두산위브트레지움아파트)"},
{"lat" : 37.5897457708,
"lon" : 127.0580347431,
"address" : "서울특별시 동대문구 회기로 196 (휘경동 317-101) 회기역 역사 내"},
{"lat" : 37.6285617347,
"lon" : 127.0223441617,
"address" : "서울특별시 강북구 도봉로61길 46 지하1층, 헬스장 중앙"},
{"lat" : 37.6013571562,
"lon" : 127.0928002543,
"address" : "서울특별시 중랑구 신내로7나길 24  (상봉동, 건영2차아파트)"},
{"lat" : 37.5501410608,
"lon" : 127.1275418321,
"address" : "서울특별시 강동구 올림픽로 지하 776  (암사동)"},
{"lat" : 37.5531426514,
"lon" : 127.1536926233,
"address" : "서울특별시 강동구 고덕로 지하 253  (고덕동)"},
{"lat" : 37.4808856775,
"lon" : 127.1177776831,
"address" : "서울특별시 송파구 새말로 27 서울지방경찰청 제3기동단 (문정동)"},
{"lat" : 37.4966656287,
"lon" : 127.1005412365,
"address" : "서울특별시 송파구 삼학사로2길 49 송파구장애인운전교육원 (가락동)"},
{"lat" : 37.5416909788,
"lon" : 126.9613516115,
"address" : "서울특별시 용산구 효창원로69가길 2 용산구시설관리공단 (효창동)"},
{"lat" : 37.4705657788,
"lon" : 127.1193124695,
"address" : "서울특별시 강남구 헌릉로757길 35 율현동 (율현동)"},
{"lat" : 37.5803242493,
"lon" : 127.0117875296,
"address" : "서울특별시 종로구 동망산길 19(창신동, 쌍용아파트)"},
{"lat" : 37.559311737,
"lon" : 127.0360090948,
"address" : "서울특별시 성동구 왕십리로 281 소월아트홀 1층 (행당동)"},
{"lat" : 37.6310229060,
"lon" : 127.0239898383,
"address" : "서울특별시 강북구 도봉로 253 (수유동)"},
{"lat" : 37.6646206338,
"lon" : 127.0117373774,
"address" : "서울특별시 강북구 방학로 384-1 우이치안센터"},
{"lat" : 37.6415395539,
"lon" : 127.0167576370,
"address" : "서울특별시 강북구 삼양로181길 17 우이신설도시철도"},
{"lat" : 37.5669953221,
"lon" : 126.8285204897,
"address" : "서울특별시 강서구 마곡중앙로 150  (마곡동)"},
{"lat" : 37.6247602818,
"lon" : 127.0182060980,
"address" : "서울특별시 강북구 삼양로 239 삼양파출소"},
{"lat" : 37.6458076732,
"lon" : 127.0156096292,
"address" : "서울특별시 강북구 삼양로 476 스마트빌딩 1층 (수유동)"},
{"lat" : 37.5536189502,
"lon" : 126.969366984,
"address" : "서울특별시 용산구 청파로 378 공항철도 서울역 (동자동)"},
{"lat" : 37.5536189502,
"lon" : 126.969366984,
"address" : "서울특별시 용산구 청파로 378 공항철도 서울역 (동자동)"},
{"lat" : 37.5739195568,
"lon" : 127.0440579476,
"address" : "서울특별시 동대문구 천호대로47길 34"},
{"lat" : 37.4877623464,
"lon" : 127.0525283412,
"address" : "서울특별시 강남구 언주로30길 26  (도곡동, 타워팰리스)"},
{"lat" : 37.6149947609,
"lon" : 127.0300329613,
"address" : "서울특별시 강북구 도봉로 지하 50 미아사거리역"},
{"lat" : 37.6162377650,
"lon" : 127.0361373350,
"address" : "서울특별시 강북구 오패산로30길 30 미아경남아너스빌1차아파트 (미아동, 경남아너스빌)"},
{"lat" : 37.5171883491,
"lon" : 126.9055666213,
"address" : "서울특별시 영등포구 영중로 9 영등포신세계백화점 (영등포동4가)"},
{"lat" : 37.5744287797,
"lon" : 127.0851538997,
"address" : "서울특별시 중랑구 용마산로 215(면목동, 면목근로청소년아파트)"},
{"lat" : 37.5380509064,
"lon" : 127.0825916902,
"address" : "서울특별시 광진구 자양로 117"},
{"lat" : 37.6225678200,
"lon" : 127.0400890531,
"address" : "서울특별시 강북구 월계로 173 북서울꿈의숲"},
{"lat" : 37.6165846007,
"lon" : 127.0159138668,
"address" : "서울특별시 강북구 삼양로27길 95 미아두산위브트레지움 (미아동, 두산위브트레지움아파트)"},
{"lat" : 37.6193287110,
"lon" : 127.0207420241,
"address" : "서울특별시 강북구 솔샘로 254 (미아동)"},
{"lat" : 37.6306775601,
"lon" : 127.0357308269,
"address" : "서울특별시 강북구 오현로31길 85-7 관리사무소(안) 2층 (번동, 번동금호어울림)"},
{"lat" : 37.6201436191,
"lon" : 127.0182276265,
"address" : "서울특별시 강북구 솔샘로 229-1 (미아동)"},
{"lat" : 37.6226369677,
"lon" : 127.0363431950,
"address" : "서울특별시 강북구 오현로 117"},
{"lat" : 37.5650848810,
"lon" : 127.0857783380,
"address" : "서울특별시 광진구 용마산로 127 국립정신건강센터 (중곡동)"},
{"lat" : 37.6719290319,
"lon" : 127.0526488169,
"address" : "서울특별시 노원구 수락산로 234 상계현대3차아파트 (상계동, 상계3차현대아파트)"},
{"lat" : 37.5063874628,
"lon" : 127.1380308213,
"address" : "서울특별시 송파구 동남로 341  (오금동, 송파레미니스2단지)"},
{"lat" : 37.615650592,
"lon" : 127.0085039017,
"address" : "서울특별시 성북구 솔샘로 107  (정릉동)"},
{"lat" : 37.5383816139,
"lon" : 126.8570629871,
"address" : "서울특별시 강서구 등촌로13아길 20 (화곡동)"},
{"lat" : 37.6402990172,
"lon" : 127.0260367878,
"address" : "서울특별시 강북구 한천로 1043 (수유동)"},
{"lat" : 37.6395444128,
"lon" : 127.0250828456,
"address" : "서울특별시 강북구 도봉로89길 13 강북구청 (수유동)"},
{"lat" : 37.6409205285,
"lon" : 127.0170996727,
"address" : "서울특별시 강북구 삼각산로 115 수유2동파출소"},
{"lat" : 37.6330139277,
"lon" : 127.0322153965,
"address" : "서울특별시 강북구 덕릉로42길 49 (번동)"},
{"lat" : 37.5345276026,
"lon" : 127.0736507408,
"address" : "서울특별시 광진구 뚝섬로 569"},
{"lat" : 37.5728980713,
"lon" : 127.0246458518,
"address" : "서울특별시 동대문구 난계로28길 23 120다산콜센터 (신설동)"},
{"lat" : 37.6134973313,
"lon" : 127.0363885815,
"address" : "서울특별시 강북구 월계로 61"},
{"lat" : 37.5299114440,
"lon" : 126.9646991253,
"address" : "서울특별시 용산구 한강대로23길 55, 용산역 (한강로3가)"},
{"lat" : 37.5405219609,
"lon" : 127.1340836610,
"address" : "서울특별시 강동구 성안로31마길 1  (천호동)"},
{"lat" : 37.6015820855,
"lon" : 127.0381584307,
"address" : "서울특별시 성북구 종암로24가길 109  (종암동)"},
{"lat" : 37.6432020453,
"lon" : 127.0023642504,
"address" : "서울특별시 강북구 4.19로28길 10 북한산국립공원 수유분소"},
{"lat" : 37.6569839392,
"lon" : 127.0114868550,
"address" : "서울특별시 강북구 삼양로155길 37-9 (우이동)"},
{"lat" : 37.6499912166,
"lon" : 127.0480009411,
"address" : "서울특별시 도봉구 노해로66길 21  (창동, 삼성아파트)"},
{"lat" : 37.6134074139,
"lon" : 127.0357950493,
"address" : "서울특별시 강북구 월계로 61"},
{"lat" : 37.6208560160,
"lon" : 127.0247386999,
"address" : "서울특별시 강북구 도봉로29길 52"},
{"lat" : 37.6165585101,
"lon" : 127.1097546565,
"address" : "서울특별시 중랑구 신내역로 165  (신내동, 신내우디안2단지)"},
{"lat" : 37.6141021239,
"lon" : 127.0910356091,
"address" : "서울특별시 중랑구 신내로19길 42  (신내동, 신내6단지신내아파트)"},
{"lat" : 37.5956599449,
"lon" : 126.9499776468,
"address" : "서울특별시 서대문구 세검정로 90-15 경찰청 세검정로 별관 (홍제동)"},
{"lat" : 37.5181769998,
"lon" : 126.9070177977,
"address" : "서울특별시 영등포구 영중로8길 14 한국마사회 영등포지사 (영등포동3가)"},
{"lat" : 37.5650848810,
"lon" : 127.085778338,
"address" : "서울특별시 광진구 용마산로 127"},
{"lat" : 37.5733237497,
"lon" : 127.0553504679,
"address" : "서울특별시 동대문구 답십리로 141 래미안미드카운티아파트 관리사무소 (답십리동)"},
{"lat" : 37.6302582407,
"lon" : 127.0492434634,
"address" : "서울특별시 노원구 월계로45가길 9 염광고등학교 (월계동)"},
{"lat" : 37.4948144949,
"lon" : 126.8388403948,
"address" : "서울특별시 구로구 경인로 221 (오류동)"},
{"lat" : 37.4820309783,
"lon" : 127.1301179875,
"address" : "서울특별시 송파구 새말로12길 16 경비실"},
{"lat" : 37.597007915,
"lon" : 127.0820691159,
"address" : "서울특별시 중랑구 동일로 752  (중화동, 중화한신아파트)"},
{"lat" : 37.6183528114,
"lon" : 127.0157534023,
"address" : "서울특별시 강북구 삼양로27길 95 미아두산위브트레지움 (미아동, 두산위브트레지움아파트)"},
{"lat" : 37.6349410463,
"lon" : 127.0460652635,
"address" : "서울특별시 노원구 초안산로5길 66"},
{"lat" : 37.6318802215,
"lon" : 127.0390621041,
"address" : "서울특별시 강북구 한천로 897, 강북보건소,번2동 주민센터 (번동)"},
{"lat" : 37.6609319684,
"lon" : 127.0065506647,
"address" : "서울특별시 강북구 삼양로173길 120 북한산국립공원 우이분소"},
{"lat" : 37.6171114060,
"lon" : 127.0178225239,
"address" : "서울특별시 강북구 삼양로19길 113 삼각산아이원아파트(임대)"},
{"lat" : 37.6491348822,
"lon" : 127.0489749021,
"address" : "서울특별시 도봉구 노해로66길 21  (창동, 삼성아파트)"},
{"lat" : 37.5983236730,
"lon" : 127.0959898047,
"address" : "서울특별시 중랑구 망우로 390 동국빌딩 5층 중랑문화공감센터 (망우동)"},
{"lat" : 37.4985988200,
"lon" : 126.8712295444,
"address" : "서울특별시 구로구 경인로 472  (구로동)"},
{"lat" : 37.6141021239,
"lon" : 127.0910356091,
"address" : "서울특별시 중랑구 신내로19길 42  (신내동, 신내6단지신내아파트)"},
{"lat" : 37.6226742024,
"lon" : 127.0434659569,
"address" : "서울특별시 강북구 월계로 191-40 강북구재활용선별처리장 3층 작업장 입구"},
{"lat" : 37.6236654574,
"lon" : 127.0121795107,
"address" : "서울특별시 강북구 인수봉로 39 (미아동)"},
{"lat" : 37.5450325148,
"lon" : 127.0902997652,
"address" : "서울특별시 광진구 광나루로43길 26 구의파출소 (구의동)"},
{"lat" : 37.5521280348,
"lon" : 126.9512968749,
"address" : "서울특별시 마포구 마포대로11길 44-81 아현문화건강센터 (아현동)"},
{"lat" : 37.6382361353,
"lon" : 127.0725746854,
"address" : "서울특별시 노원구 한글비석로 97 노원에너지제로주택 (하계동)"},
{"lat" : 37.5805999641,
"lon" : 127.0375861910,
"address" : "서울특별시 동대문구 약령중앙로 26  (제기동)"},
{"lat" : 37.5545318506,
"lon" : 127.0260929301,
"address" : "서울특별시 성동구 금호로 100"},
{"lat" : 37.6193287109,
"lon" : 127.0207420241,
"address" : "서울특별시 강북구 솔샘로 254 401호 강북신나는탁구클럽 (미아동)"},
{"lat" : 37.5086303734,
"lon" : 126.9282838829,
"address" : "서울특별시 동작구 여의대방로44길 46  (대방동)"},
{"lat" : 37.5773851095,
"lon" : 127.0379241946,
"address" : "서울특별시 동대문구 고산자로 421 서울명병원 (용두동)"},
{"lat" : 37.6318802215,
"lon" : 127.0390621041,
"address" : "서울특별시 강북구 한천로 897, 번2동주민센터 (번동)"},
{"lat" : 37.5545318506,
"lon" : 127.0260929301,
"address" : "서울특별시 성동구 금호로 100"},
{"lat" : 37.5592088582,
"lon" : 127.1799953539,
"address" : "서울특별시 강동구 고덕로97길 20  (강일동, 강일리버파크10단지아파트)"},
{"lat" : 37.6153857761,
"lon" : 127.0187717185,
"address" : "서울특별시 강북구 삼양로19길 113 삼각산아이원아파트 (미아동, 삼각산아이원아파트)"},
{"lat" : 37.5370003762,
"lon" : 127.0729607226,
"address" : "서울특별시 광진구 아차산로 262 ."},
{"lat" : 37.6141021239,
"lon" : 127.0910356091,
"address" : "서울특별시 중랑구 신내로19길 42  (신내동, 신내6단지신내아파트)"},
{"lat" : 37.6378945353,
"lon" : 127.0288502785,
"address" : "서울특별시 강북구 덕릉로41길 74, 번1동주민센터 (번동)"},
{"lat" : 37.6174410980,
"lon" : 127.0150917291,
"address" : "서울특별시 강북구 솔샘로 174 SK북한산시티아파트"},
{"lat" : 37.6412995791,
"lon" : 127.0315028963,
"address" : "서울특별시 강북구 도봉로98길 33 번동삼성래미안아파트 (번동, 삼성아파트)"},
{"lat" : 37.6041981090,
"lon" : 127.0960154721,
"address" : "서울특별시 중랑구 신내로 56(신내동)"},
{"lat" : 37.6348401548,
"lon" : 127.0355968676,
"address" : "서울특별시 강북구 한천로 940 번동프라자약국 (번동)"},
{"lat" : 37.5184860746,
"lon" : 127.1411344224,
"address" : "서울특별시 강동구 강동대로 327  (둔촌동)"},
{"lat" : 37.5387279599,
"lon" : 127.0820142505,
"address" : "서울특별시 광진구 자양로 117"},
{"lat" : 37.6638683280,
"lon" : 127.0277904197,
"address" : "서울특별시 도봉구 시루봉로 145"},
{"lat" : 37.4633600801,
"lon" : 126.9057660466,
"address" : "서울특별시 금천구 독산로50길 23 남부여성발전센터 (시흥동)"},
{"lat" : 37.6208937983,
"lon" : 127.0381474568,
"address" : "서울특별시 강북구 월계로 173 북서울꿈의숲"},
{"lat" : 37.5545318506,
"lon" : 127.0260929301,
"address" : "서울특별시 성동구 금호로 100"},
{"lat" : 37.5545318506,
"lon" : 127.0260929301,
"address" : "서울특별시 성동구 금호로 100"},
{"lat" : 37.5545318506,
"lon" : 127.0260929301,
"address" : "서울특별시 성동구 금호로 100"},
{"lat" : 37.5545318506,
"lon" : 127.0260929301,
"address" : "서울특별시 성동구 금호로 100"},
{"lat" : 37.5545318506,
"lon" : 127.0260929301,
"address" : "서울특별시 성동구 금호로 100"},
{"lat" : 37.6304570843,
"lon" : 127.0377698874,
"address" : "서울특별시 강북구 오현로31길 51 2층 여자 탈의실 옆"},
{"lat" : 37.6479183471,
"lon" : 127.0494726827,
"address" : "서울특별시 도봉구 노해로66길 21  (창동, 삼성아파트)"},
{"lat" : 37.6141021239,
"lon" : 127.0910356091,
"address" : "서울특별시 중랑구 신내로19길 42  (신내동, 신내6단지신내아파트)"},
{"lat" : 37.6368011938,
"lon" : 127.0339164811,
"address" : "서울특별시 강북구 한천로122길 21 수송중학교"},
{"lat" : 37.6142804560,
"lon" : 127.0358475685,
"address" : "서울특별시 강북구 오패산로30길 30 미아경남아너스빌1차아파트 (미아동, 경남아너스빌)"},
{"lat" : 37.6172668991,
"lon" : 127.0855437547,
"address" : "서울특별시 중랑구 숙선옹주로 91  (묵동, 신내4단지신내아파트)"},
{"lat" : 37.6312506484,
"lon" : 127.0202921843,
"address" : "서울특별시 강북구 삼양로74길 39 (수유동)"},
{"lat" : 37.6270580943,
"lon" : 127.0392091124,
"address" : "서울특별시 강북구 오현로 180"},
{"lat" : 37.5545318506,
"lon" : 127.0260929301,
"address" : "서울특별시 성동구 금호로 100"},
{"lat" : 37.6145035372,
"lon" : 127.0843354732,
"address" : "서울특별시 중랑구 숙선옹주로 66(묵동)"},
{"lat" : 37.4982670171,
"lon" : 127.1256396395,
"address" : "서울특별시 송파구 중대로 지하 149 경찰병원역 3호선"},
{"lat" : 37.4819696942,
"lon" : 126.8236678895,
"address" : "서울특별시 구로구 연동로 240  (항동)"},
{"lat" : 37.5299734400,
"lon" : 126.9968186477,
"address" : "서울특별시 용산구 보광로 73 한국폴리텍 서울정수캠퍼스 (보광동)"},
{"lat" : 37.4565207925,
"lon" : 126.8880292843,
"address" : "서울특별시 금천구 한내로 62"},
{"lat" : 37.5034129964,
"lon" : 127.1261684978,
"address" : "서울특별시 송파구 오금로 지하 321 오금역(5호선)"},
{"lat" : 37.5355202362,
"lon" : 127.1335316182,
"address" : "서울특별시 강동구 천호대로 지하 1097  (천호동)"},
{"lat" : 37.5566635488,
"lon" : 127.1658423484,
"address" : "서울특별시 강동구 고덕로 지하 359  (상일동)"},
{"lat" : 37.4448641990,
"lon" : 126.9053400476,
"address" : "서울특별시 금천구 시흥대로38길 26 금천고등학교"},
{"lat" : 37.4828832255,
"lon" : 127.1177652158,
"address" : "서울특별시 송파구 정의로 30"},
{"lat" : 37.6558498467,
"lon" : 127.0134404132,
"address" : "서울특별시 강북구 삼양로181길 17 우이신설도시철도"},
{"lat" : 37.6172668991,
"lon" : 127.0855437547,
"address" : "서울특별시 중랑구 숙선옹주로 91  (묵동, 신내4단지신내아파트)"},
{"lat" : 37.6141021239,
"lon" : 127.0910356091,
"address" : "서울특별시 중랑구 신내로19길 42  (신내동, 신내6단지신내아파트)"},
{"lat" : 37.61631011,
"lon" : 127.0304004707,
"address" : "서울특별시 강북구 오현로 4 솔샘지구대"},
{"lat" : 37.6197492517,
"lon" : 127.0283063620,
"address" : "서울특별시 강북구 도봉로 117 도봉세무서"},
{"lat" : 37.6238296030,
"lon" : 127.0282880857,
"address" : "서울특별시 강북구 솔매로50길 65 서울특별시성북강북교육지원청 (미아동)"},
{"lat" : 37.6234190338,
"lon" : 127.0465746927,
"address" : "서울특별시 강북구 월계로 221 (번동)"},
{"lat" : 37.6130900493,
"lon" : 127.0991891396,
"address" : "서울특별시 중랑구 신내로 156  (신내동)"},
{"lat" : 37.5247023260,
"lon" : 126.9777411515,
"address" : "서울특별시 용산구 서빙고로 137 국립중앙박물관 (용산동6가)"},
{"lat" : 37.6476211032,
"lon" : 127.0492798534,
"address" : "서울특별시 도봉구 노해로66길 21  (창동, 삼성아파트)"},
{"lat" : 37.5297736038,
"lon" : 126.9647427471,
"address" : "서울특별시 용산구 한강대로23길 55, 용산역 (한강로3가)"},
{"lat" : 37.5545318506,
"lon" : 127.0260929301,
"address" : "서울특별시 성동구 금호로 100"},
{"lat" : 37.5545318506,
"lon" : 127.0260929301,
"address" : "서울특별시 성동구 금호로 100"},
{"lat" : 37.5545318506,
"lon" : 127.0260929301,
"address" : "서울특별시 성동구 금호로 100"},
{"lat" : 37.5545318506,
"lon" : 127.0260929301,
"address" : "서울특별시 성동구 금호로 100"},
{"lat" : 37.6353404879,
"lon" : 127.0237011926,
"address" : "서울특별시 강북구 도봉로 302 한국마사회강북지점 (번동)"},
{"lat" : 37.6274630182,
"lon" : 127.0428630554,
"address" : "서울특별시 강북구 번3동 191 기산그린아파트"},
{"lat" : 37.5371662760,
"lon" : 126.9456391384,
"address" : "서울특별시 마포구 마포대로4라길 30 관리동 1층 (마포동, 마포쌍용황금아파트)"},
{"lat" : 37.6919367623,
"lon" : 127.0469395138,
"address" : "서울특별시 도봉구 창포원로 45  (도봉동)"},
{"lat" : 37.6307276442,
"lon" : 127.0226665463,
"address" : "서울특별시 강북구 도봉로67길 18 (수유동)"},
{"lat" : 37.6141761115,
"lon" : 127.0976638069,
"address" : "서울특별시 중랑구 신내로16길 33  (신내동, 신내동 의료안심주택)"},
{"lat" : 37.5385798824,
"lon" : 127.1237430017,
"address" : "서울특별시 강동구 천호대로 지하 997 천호역5호선 지하1층 원형광장"},
{"lat" : 37.6141021239,
"lon" : 127.0910356091,
"address" : "서울특별시 중랑구 신내로19길 42  (신내동, 신내6단지신내아파트)"},
{"lat" : 37.5047452066,
"lon" : 127.0877811867,
"address" : "서울특별시 송파구 백제고분로 187 삼전역 (잠실동, 파크인-수)"},
{"lat" : 37.5168642366,
"lon" : 127.1181825987,
"address" : "서울특별시 송파구 위례성대로 51 한성백제역 (방이동)"},
{"lat" : 37.5345276026,
"lon" : 127.0736507408,
"address" : "서울특별시 광진구 뚝섬로 569 자양1차우성아파트 (자양동, 우성아파트)"},
{"lat" : 37.6130900493,
"lon" : 127.0991891396,
"address" : "서울특별시 중랑구 신내로 156  (신내동)"},
{"lat" : 37.4877623464,
"lon" : 127.0525283412,
"address" : "서울특별시 강남구 언주로30길 26  (도곡동, 타워팰리스)"},
{"lat" : 37.6287592031,
"lon" : 127.0390695334,
"address" : "서울특별시 강북구 오현로 189 1층 로비"},
{"lat" : 37.6290429510,
"lon" : 127.0418791463,
"address" : "서울특별시 강북구 오현로 208 번동3단지종합사회복지관"},
{"lat" : 37.6174136161,
"lon" : 127.0222258589,
"address" : "서울특별시 강북구 삼양로24길 19 지하 삼일사우나 (미아동, 현대성우아파트)"},
{"lat" : 37.6317075662,
"lon" : 127.0244250878,
"address" : "서울특별시 강북구 도봉로 260 운산빌딩 지하1층 (미아동)"},
{"lat" : 37.5806068671,
"lon" : 127.0483276943,
"address" : "서울특별시 동대문구 왕산로 214 롯데마트청량리점 (전농동)"},
{"lat" : 37.5203411391,
"lon" : 127.1155184444,
"address" : "서울특별시 송파구 올림픽로 424 올림픽공원역 (방이동)"},
{"lat" : 37.5020172740,
"lon" : 127.0966173126,
"address" : "서울특별시 송파구 삼학사로 53 석촌고분역 (삼전동)"},
{"lat" : 37.5993148428,
"lon" : 127.0392262561,
"address" : "서울특별시 성북구 종암로24가길 80  (종암동, 래미안라센트)"},
{"lat" : 37.6325169780,
"lon" : 127.0097112302,
"address" : "서울특별시 강북구 화계사길 63 (수유동)"},
{"lat" : 37.6315654705,
"lon" : 127.0104860010,
"address" : "서울특별시 강북구 인수봉로37길 40 (수유동)"},
{"lat" : 37.6130900493,
"lon" : 127.0991891396,
"address" : "서울특별시 중랑구 신내로 156  (신내동)"},
{"lat" : 37.5039738870,
"lon" : 126.9609563147,
"address" : "서울특별시 동작구 서달로 124 중앙대부속중학교 (흑석동)"},
{"lat" : 37.5169822281,
"lon" : 126.9092815844,
"address" : "서울특별시 영등포구 경인로 870 페어필드 바이 메리어트 호텔 (영등포동1가)"},
{"lat" : 37.6141021239,
"lon" : 127.0910356091,
"address" : "서울특별시 중랑구 신내로19길 42  (신내동, 신내6단지신내아파트)"},
{"lat" : 37.6025088620,
"lon" : 126.9289644901,
"address" : "서울특별시 은평구 은평로 195  (녹번동)"},
{"lat" : 37.5387279599,
"lon" : 127.0820142504,
"address" : "서울특별시 광진구 자양로 117 ."},
{"lat" : 37.6373592531,
"lon" : 127.0273670074,
"address" : "서울특별시 강북구 오패산로 406 강북경찰서 (번동)"},
{"lat" : 37.5065980000,
"lon" : 127.0741593850,
"address" : "서울특별시 송파구 올림픽로4길 42 관리사무소내"},
{"lat" : 37.6141021239,
"lon" : 127.0910356091,
"address" : "서울특별시 중랑구 신내로19길 42  (신내동, 신내6단지신내아파트)"},
{"lat" : 37.6141021239,
"lon" : 127.0910356091,
"address" : "서울특별시 중랑구 신내로19길 42  (신내동, 신내6단지신내아파트)"},
{"lat" : 37.6141021239,
"lon" : 127.0910356091,
"address" : "서울특별시 중랑구 신내로19길 42  (신내동, 신내6단지신내아파트)"},
{"lat" : 37.6337481467,
"lon" : 127.0371031303,
"address" : "서울특별시 강북구 한천로 935 북부수도사업소 (번동)"},
{"lat" : 37.6258173010,
"lon" : 127.0434514747,
"address" : "서울특별시 강북구 월계로37길 87-9"},
{"lat" : 37.5096299945,
"lon" : 126.9622051185,
"address" : "서울특별시 동작구 현충로 100-1  (흑석동)"},
{"lat" : 37.6497927170,
"lon" : 127.0486920432,
"address" : "서울특별시 도봉구 노해로66길 21  (창동, 삼성아파트)"},
{"lat" : 37.6148108851,
"lon" : 127.0878877553,
"address" : "서울특별시 중랑구 신내로15길 175  (신내동)"},
{"lat" : 37.5342802051,
"lon" : 127.003878486,
"address" : "서울특별시 용산구 대사관로 59 순천향대학교 서울병원 (한남동)"},
{"lat" : 37.5370003762,
"lon" : 127.0729607226,
"address" : "서울특별시 광진구 아차산로 262 ."},
{"lat" : 37.5386535208,
"lon" : 127.0901925019,
"address" : "서울특별시 광진구 아차산로 431 강변SK뷰 (구의동, 강변에스케이뷰)"},
{"lat" : 37.6262328894,
"lon" : 127.0463884026,
"address" : "서울특별시 강북구 한천로105길 24 번동2단지종합사회복지관 (번동, 번동2단지주공아파트)"},
{"lat" : 37.6487926633,
"lon" : 127.0486007384,
"address" : "서울특별시 도봉구 노해로66길 21  (창동, 삼성아파트)"},
{"lat" : 37.5380817967,
"lon" : 127.1435021756,
"address" : "서울특별시 강동구 양재대로116길 57  (길동)"},
{"lat" : 37.6229330277,
"lon" : 127.0185409482,
"address" : "서울특별시 강북구 삼양로47길 9"},
{"lat" : 37.4982122051,
"lon" : 126.8670867062,
"address" : "서울특별시 구로구 경인로 430 고척체육센터 (고척동)"},
{"lat" : 37.4884754678,
"lon" : 126.8418436410,
"address" : "서울특별시 구로구 오류로 36-25 남부캠퍼스 (오류동)"},
{"lat" : 37.6215019166,
"lon" : 127.0385734489,
"address" : "서울특별시 강북구 월계로 173 북서울꿈의숲"},
{"lat" : 37.6184518303,
"lon" : 127.0164126475,
"address" : "서울특별시 강북구 삼양로27길 95 미아두산위브트레지움 (미아동, 두산위브트레지움아파트)"},
{"lat" : 37.6256372932,
"lon" : 127.0429335686,
"address" : "서울특별시 강북구 월계로37길 87-9"},
{"lat" : 37.6255171805,
"lon" : 127.0177486335,
"address" : "서울특별시 강북구 삼양로 247 롯데마트 삼양점 (미아동)"},
{"lat" : 37.6142701858,
"lon" : 127.0192460077,
"address" : "서울특별시 강북구 삼양로19길 113 삼각산아이원아파트 (미아동, 삼각산아이원아파트)"},
{"lat" : 37.5247023261,
"lon" : 126.9777411515,
"address" : "서울특별시 용산구 서빙고로 137 국립중앙박물관 (용산동6가)"},
{"lat" : 37.5402629812,
"lon" : 127.0651112649,
"address" : "서울특별시 광진구 아차산로24길 17 자양보건지소"},
{"lat" : 37.6130900493,
"lon" : 127.0991891396,
"address" : "서울특별시 중랑구 신내로 156  (신내동)"},
{"lat" : 37.5378120982,
"lon" : 127.1399986397,
"address" : "서울특별시 강동구 양재대로 지하 1480  (길동)"},
{"lat" : 37.5457301226,
"lon" : 127.1429691478,
"address" : "서울특별시 강동구 양재대로 지하 1572  (명일동)"},
{"lat" : 37.5281359913,
"lon" : 127.1363739058,
"address" : "서울특별시 강동구 양재대로 지하 1369  (둔촌동)"},
{"lat" : 37.6387115989,
"lon" : 127.0150053909,
"address" : "서울특별시 강북구 삼양로99길 36"},
{"lat" : 37.6012540125,
"lon" : 127.0999480035,
"address" : "서울특별시 중랑구 망우로65길 20  (신내동)"},
{"lat" : 37.5385798824,
"lon" : 127.1237430017,
"address" : "서울특별시 강동구 천호대로 지하 997 8호선"},
{"lat" : 37.6123157372,
"lon" : 127.0178691341,
"address" : "서울특별시 성북구 길음로 118 (길음동, 길음뉴타운)"},
{"lat" : 37.6160062004,
"lon" : 127.0163233668,
"address" : "서울특별시 강북구 삼양로19길 113 삼각산아이원아파트 (미아동, 삼각산아이원아파트)"},
{"lat" : 37.6237270551,
"lon" : 127.0285400876,
"address" : "서울특별시 강북구 솔매로50길 65 서울특별시성북강북교육지원청 (미아동)"},
{"lat" : 37.6137913583,
"lon" : 127.0195026487,
"address" : "서울특별시 강북구 삼양로19길 113 삼각산아이원아파트 (미아동, 삼각산아이원아파트)"},
{"lat" : 37.6359762682,
"lon" : 127.0325792206,
"address" : "서울특별시 강북구 한천로 969 번동파출소"},
{"lat" : 37.5853530544,
"lon" : 127.0865941198,
"address" : "서울특별시 중랑구 면목로57길 32 면동초등학교"},
{"lat" : 37.5032261304,
"lon" : 127.0852958540,
"address" : "서울특별시 송파구 백제고분로18길 17 강남기동대 (잠실동)"},
{"lat" : 37.6317191436,
"lon" : 127.0355863159,
"address" : "서울특별시 강북구 오현로31길 89 오동공원 현대홈타운 (번동, 오동공원 현대홈타운)"},
{"lat" : 37.6156777203,
"lon" : 127.0168192240,
"address" : "서울특별시 강북구 삼양로19길 113 삼각산아이원아파트 (미아동, 삼각산아이원아파트)"},
{"lat" : 37.5300428168,
"lon" : 127.1297024193,
"address" : "서울특별시 강동구 성내로15길 58  (성내동)"},
{"lat" : 37.5340081552,
"lon" : 126.8615969690,
"address" : "서울특별시 강서구 곰달래로57길 39  (화곡동)"},
{"lat" : 37.6495835034,
"lon" : 127.0135129393,
"address" : "서울특별시 강북구 삼양로181길 17 우이신설도시철도"},
{"lat" : 37.6249545107,
"lon" : 127.0360242995,
"address" : "서울특별시 강북구 오현로 145 강북문화정보도서관 (번동)"},
{"lat" : 37.5071297523,
"lon" : 127.1358188160,
"address" : "서울특별시 송파구 성내천로 6  (오금동, 송파레미니스)"},
{"lat" : 37.5048672530,
"lon" : 127.1065599422,
"address" : "서울특별시 송파구 송파대로 지하 439 석촌역 (석촌동)"},
{"lat" : 37.4889831201,
"lon" : 126.9148424622,
"address" : "서울특별시 동작구 신대방2길 14 (신대방동)"},
{"lat" : 37.5780531383,
"lon" : 126.9210173526,
"address" : "서울특별시 서대문구 증가로 150 남가좌동 (남가좌동)"},
{"lat" : 37.5574464252,
"lon" : 126.969510283,
"address" : "서울특별시 중구 청파로 426  (봉래동2가)"},
{"lat" : 37.5929059279,
"lon" : 127.0094026242,
"address" : "서울특별시 성북구 성북로4길 52  (돈암동, 한신한진아파트 단지내)"},
{"lat" : 37.4807665275,
"lon" : 126.98278765,
"address" : "서울특별시 서초구 방배천로 48 1층 복지관 안내데스크 (방배동)"},
{"lat" : 37.5721470805,
"lon" : 126.9911523955,
"address" : "서울특별시 종로구 돈화문로9가길 20-2 1층 안내데스크 (돈의동)"},
{"lat" : 37.5400807360,
"lon" : 127.0996795930,
"address" : "서울특별시 광진구 아차산로70길 61"},
{"lat" : 37.4553899203,
"lon" : 126.8888763774,
"address" : "서울특별시 금천구 한내로 62"},
{"lat" : 37.6163554862,
"lon" : 127.0356696051,
"address" : "서울특별시 강북구 오패산로30길 30 미아경남아너스빌1차아파트 (미아동, 경남아너스빌)"},
{"lat" : 37.6214447014,
"lon" : 127.0385808954,
"address" : "서울특별시 강북구 월계로 173 북서울꿈의숲"},
{"lat" : 37.5607209460,
"lon" : 127.1762685393,
"address" : "서울특별시 강동구 아리수로94길 72  (강일동, 강일리버파크8단지아파트)"},
{"lat" : 37.6654511998,
"lon" : 127.0108296534,
"address" : "서울특별시 강북구 삼양로181길 17 우이신설도시철도"},
{"lat" : 37.6509105708,
"lon" : 127.0471289838,
"address" : "서울특별시 도봉구 노해로66길 21  (창동, 삼성아파트)"},
{"lat" : 37.5203411391,
"lon" : 127.1155184444,
"address" : "서울특별시 송파구 올림픽로 424 올림픽컨벤션센터 대한체육회2층 인사총무부 (방이동)"},
{"lat" : 37.5450712465,
"lon" : 127.0982151882,
"address" : "서울특별시 광진구 워커힐로 32 (광장동)"},
{"lat" : 37.6626889515,
"lon" : 127.0115240016,
"address" : "서울특별시 강북구 삼양로173길 17 백두산한증막사우나 (우이동)"},
{"lat" : 37.4953574869,
"lon" : 126.8460357988,
"address" : "서울특별시 구로구 경인로20가길 38, 3층 (오류동)"},
{"lat" : 37.5669953221,
"lon" : 126.8285204897,
"address" : "서울특별시 강서구 마곡중앙로 150  (마곡동)"},
{"lat" : 37.6408553648,
"lon" : 127.0190122089,
"address" : "서울특별시 강북구 삼각산로 132 (수유동)"},
{"lat" : 37.5111051826,
"lon" : 127.0939189978,
"address" : "서울특별시 송파구 올림픽로 212 A2동 아파트데스크 (잠실동, 갤러리아팰리스)"},
{"lat" : 37.6273406833,
"lon" : 127.0183653227,
"address" : "서울특별시 강북구 삼양로 268, 삼양동주민센터 (미아동)"},
{"lat" : 37.6130900493,
"lon" : 127.0991891396,
"address" : "서울특별시 중랑구 신내로 156  (신내동)"},
{"lat" : 37.5171883491,
"lon" : 126.9055666213,
"address" : "서울특별시 영등포구 영중로 9 영등포 신세계 백화점 (영등포동4가)"},
{"lat" : 37.6183140256,
"lon" : 127.0299391507,
"address" : "서울특별시 강북구 도봉로20나길 6 송중문화정보도서관"},
{"lat" : 37.6170481957,
"lon" : 127.0156398604,
"address" : "서울특별시 강북구 삼양로19길 154"},
{"lat" : 37.5896638101,
"lon" : 127.0755030522,
"address" : "서울특별시 중랑구 봉우재로6길 26 중랑초등학교"},
{"lat" : 37.5790838251,
"lon" : 127.0608068824,
"address" : "서울특별시 동대문구 전농로16길 61 서울전동초등학교 보건실 (전농동)"},
{"lat" : 37.5688854829,
"lon" : 127.0087747747,
"address" : "서울특별시 중구 장충단로 275 두타빌딩"},
{"lat" : 37.4510090194,
"lon" : 126.8987061896,
"address" : "서울특별시 금천구 시흥대로47길 43 (시흥동, 럭키아파트)"},
{"lat" : 37.4494591689,
"lon" : 126.9170650549,
"address" : "서울특별시 금천구 금하로 796 (시흥동, 벽산6단지아파트)"},
{"lat" : 37.5314246433,
"lon" : 126.9119963537,
"address" : "서울특별시 영등포구 의사당대로 1 국회사무처"},
{"lat" : 37.4811268835,
"lon" : 126.9902739127,
"address" : "서울특별시 서초구 방배중앙로3길 32 중앙현관"},
{"lat" : 37.5781465128,
"lon" : 127.0846567146,
"address" : "서울특별시 중랑구 면목로35길 21  (면목동)"},
{"lat" : 37.4610460851,
"lon" : 127.1015424524,
"address" : "서울특별시 강남구 헌릉로590길 63 강남데시앙파크아파트 (세곡동, 강남데시앙파크)"},
{"lat" : 37.5103117,
"lon" : 127.0463776454,
"address" : "서울특별시 강남구 선릉로108길 27, 강남구치매지원센터 (삼성동)"},
{"lat" : 37.5688854829,
"lon" : 127.0087747747,
"address" : "서울특별시 중구 장충단로 275 두타빌딩"},
{"lat" : 37.5767315195,
"lon" : 127.0060270642,
"address" : "서울특별시 종로구 율곡로19길 17-8(이화동)"},
{"lat" : 37.689122273,
"lon" : 127.0465295855,
"address" : "서울특별시 도봉구 도봉로 964-40"},
{"lat" : 37.6157698904,
"lon" : 127.0212902562,
"address" : "서울특별시 강북구 삼양로19길 25 (미아동, 삼성래미안트리베라1차아파트)"},
{"lat" : 37.6203289074,
"lon" : 127.0441391240,
"address" : "서울특별시 강북구 월계로 173 북서울꿈의숲 관리사무소"},
{"lat" : 37.5318284497,
"lon" : 126.9191490059,
"address" : "서울특별시 영등포구 의사당대로 1 국회사무처"},
{"lat" : 37.5710301620,
"lon" : 127.0019424594,
"address" : "서울특별시 종로구 종로 지하 216(종로5가)"},
{"lat" : 37.6356873567,
"lon" : 127.0187525795,
"address" : "서울특별시 강북구 삼양로92길 40 강북노인종합복지관"},
{"lat" : 37.5688854829,
"lon" : 127.0087747747,
"address" : "서울특별시 중구 장충단로 275 두타빌딩"},
{"lat" : 37.5688854829,
"lon" : 127.0087747747,
"address" : "서울특별시 중구 장충단로 275 두산타워빌딩"},
{"lat" : 37.4856587263,
"lon" : 126.8932215206,
"address" : "서울특별시 구로구 디지털로27길 36 e스페이스 (구로동)"},
{"lat" : 37.5159099375,
"lon" : 127.0521408548,
"address" : "서울특별시 강남구 삼성로 628, 강남구청 삼성로 별관 4층 (삼성동)"},
{"lat" : 37.5210324733,
"lon" : 127.1161665641,
"address" : "서울특별시 송파구 올림픽로 424 올림픽공원 수영장"},
{"lat" : 37.4954083735,
"lon" : 127.0562699478,
"address" : "서울특별시 강남구 도곡로64길 21  (대치동)"},
{"lat" : 37.5481836882,
"lon" : 127.0138284423,
"address" : "서울특별시 성동구 매봉길 50"},
{"lat" : 37.5103229007,
"lon" : 126.8854244586,
"address" : "서울특별시 구로구 경인로63길 74 신도림중학교 (신도림동)"},
{"lat" : 37.6779336332,
"lon" : 127.0017797387,
"address" : "서울특별시 강북구 삼양로181길 327-11 서울지방경찰청 802전경대"},
{"lat" : 37.4762298973,
"lon" : 127.0514756516,
"address" : "서울특별시 강남구 개포로22길 65 정문 경비실 내"},
{"lat" : 37.6460103537,
"lon" : 127.0063816543,
"address" : "서울특별시 강북구 4.19로 74 강북청소년수련관 (수유동)"},
{"lat" : 37.4557752624,
"lon" : 127.0689242449,
"address" : "서울특별시 서초구 헌릉로 260 발달센터 지하1층"},
{"lat" : 37.4519045950,
"lon" : 126.9007935385,
"address" : "서울특별시 금천구 시흥대로 201 홈플러스 시흥점"},
{"lat" : 37.4977431986,
"lon" : 127.1162865370,
"address" : "서울특별시 송파구 송파대로32길 33"},
{"lat" : 37.6033589545,
"lon" : 127.080825858,
"address" : "서울특별시 중랑구 동일로138길 27  (중화동)"},
{"lat" : 37.4689220306,
"lon" : 126.8955936965,
"address" : "서울특별시 금천구 두산로 70 현대지식산업센터"},
{"lat" : 37.5688854829,
"lon" : 127.0087747747,
"address" : "서울특별시 중구 장충단로 275 두타빌딩"},
{"lat" : 37.5766666481,
"lon" : 127.0060225307,
"address" : "서울특별시 종로구 율곡로19길 17-8"},
{"lat" : 37.4834930115,
"lon" : 127.1197536236,
"address" : "서울특별시 광진구 서울특별시 송파구 법원로 101 서울동부지방법원"},
{"lat" : 37.6156958562,
"lon" : 127.0211397064,
"address" : "서울특별시 강북구 삼양로19길 25 (미아동, 삼성래미안트리베라1차아파트)"},
{"lat" : 37.6191625660,
"lon" : 127.0855595189,
"address" : "서울특별시 중랑구 신내로23길 36 태릉고등학교"},
{"lat" : 37.4965589229,
"lon" : 126.8889646759,
"address" : "서울특별시 구로구 가마산로25길 9-24 구로아트밸리예술극장 (구로동)"},
{"lat" : 37.4956767561,
"lon" : 126.8678737342,
"address" : "서울특별시 구로구 구일로 133 구일역 (구로동)"},
{"lat" : 37.4557392895,
"lon" : 127.0688083634,
"address" : "서울특별시 서초구 헌릉로 260 삼성발달센터 3층"},
{"lat" : 37.5635528501,
"lon" : 126.9089580251,
"address" : "서울특별시 마포구 성산로 128"},
{"lat" : 37.5366288524,
"lon" : 126.966223981,
"address" : "서울특별시 용산구 원효로 216 용산 e편한세상 관리사무소"},
{"lat" : 37.5748929885,
"lon" : 127.0834394979,
"address" : "서울특별시 중랑구 면목로23길 20 중곡초등학교"},
{"lat" : 37.5496499361,
"lon" : 126.8682809707,
"address" : "서울특별시 강서구 공항대로 561 1층 대기실"},
{"lat" : 37.5958262687,
"lon" : 127.1043161220,
"address" : "서울특별시 중랑구 망우로70길 89"},
{"lat" : 37.5635528501,
"lon" : 126.9089580251,
"address" : "서울특별시 마포구 성산로 128"},
{"lat" : 37.5688854829,
"lon" : 127.0087747747,
"address" : "서울특별시 중구 장충단로 275 두산타워빌딩"},
{"lat" : 37.6629038313,
"lon" : 127.0620765544,
"address" : "서울특별시 노원구 노원로38길 34 서울상곡초등학교 (상계동)"},
{"lat" : 37.5637737948,
"lon" : 126.9807764977,
"address" : "서울특별시 중구 남대문로7길 19 크라 파크호텔 (소공동)"},
{"lat" : 37.5389026251,
"lon" : 126.9650145311,
"address" : "서울특별시 용산구 백범로 329 꿈나무종합타운"},
{"lat" : 37.4956968607,
"lon" : 127.1326781464,
"address" : "서울특별시 송파구 동남로18길 9"},
{"lat" : 37.6161492609,
"lon" : 126.9617752285,
"address" : "서울특별시 종로구 비봉2길 90"},
{"lat" : 37.6629992406,
"lon" : 127.0124953428,
"address" : "서울특별시 강북구 삼양로181길 17 우이신설도시철도"},
{"lat" : 37.6213388603,
"lon" : 127.0204797889,
"address" : "서울특별시 강북구 삼양로181길 17 우이신설도시철도"},
{"lat" : 37.4909228998,
"lon" : 127.1445618888,
"address" : "서울특별시 송파구 양산로8길 8 관리사무소내 기전실"},
{"lat" : 37.6127829317,
"lon" : 127.0210457820,
"address" : "서울특별시 강북구 삼양로19길 25 (미아동, 삼성래미안트리베라1차아파트)"},
{"lat" : 37.4846790949,
"lon" : 126.8519416911,
"address" : "서울특별시 구로구 개봉로3길 87(개봉동)"},
{"lat" : 37.4828637408,
"lon" : 126.8389881756,
"address" : "서울특별시 구로구 천왕로 92  (오류동, 천왕이펜하우스2단지)"},
{"lat" : 37.5971021373,
"lon" : 127.0911824836,
"address" : "서울특별시 중랑구 망우로 346(상봉동, 한일써너스빌아파트)"},
{"lat" : 37.6015286167,
"lon" : 127.0901234006,
"address" : "서울특별시 중랑구 상봉중앙로8나길 28 상봉중학교"},
{"lat" : 37.6336872086,
"lon" : 127.0345359055,
"address" : "서울특별시 강북구 한천로115길 20 번동 번동주공제5단지아파트 (번동, 번동주공5단지아파트)"},
{"lat" : 37.5974910642,
"lon" : 127.1887025912,
"address" : "경기도 남양주시 고산로 171 서울시 강북아리수정수센터 본관1F 중앙현관 계단입구 (삼패동)"},
{"lat" : 37.5247023261,
"lon" : 126.9777411515,
"address" : "서울특별시 용산구 서빙고로 137 국립박물관문화재단"},
{"lat" : 37.5915696369,
"lon" : 127.0400691363,
"address" : "서울특별시 동대문구 회기로 37 한국국방연구원"},
{"lat" : 37.5093617083,
"lon" : 126.8865433921,
"address" : "서울특별시 구로구 경인로65길 16-15"},
{"lat" : 37.6694300166,
"lon" : 127.0477006229,
"address" : "서울특별시 도봉구 마들로 664-23  (도봉동)"},
{"lat" : 37.5808157167,
"lon" : 126.8956595399,
"address" : "서울특별시 은평구 수색로 261-1 수색역"},
{"lat" : 37.5688854829,
"lon" : 127.0087747747,
"address" : "서울특별시 중구 장충단로 275 두타빌딩"},
{"lat" : 37.5536205982,
"lon" : 127.023435367,
"address" : "서울특별시 성동구 금호로 118  (금호동1가)"},
{"lat" : 37.6278145867,
"lon" : 126.9291573502,
"address" : "서울특별시 은평구 연서로 365"},
{"lat" : 37.4988464796,
"lon" : 126.8805520784,
"address" : "서울특별시 구로구 구로동로47길 24 (구로동, 구로중앙하이츠아파트)"},
{"lat" : 37.5642139998,
"lon" : 126.9668634857,
"address" : "서울특별시 서대문구 통일로 97 (미근동)"},
{"lat" : 37.5311445956,
"lon" : 126.9172066230,
"address" : "서울특별시 영등포구 의사당대로 1 국회사무처"},
{"lat" : 37.6042779228,
"lon" : 127.0695791334,
"address" : "서울특별시 동대문구 한천로 472 신이문역(경원선) (이문동)"},
{"lat" : 37.5688854829,
"lon" : 127.0087747747,
"address" : "서울특별시 중구 장충단로 275 두산타워빌딩"},
{"lat" : 37.6341085740,
"lon" : 127.0174867050,
"address" : "서울특별시 강북구 삼양로181길 17 우이신설도시철도"},
{"lat" : 37.6269411286,
"lon" : 127.0181533876,
"address" : "서울특별시 강북구 삼양로181길 17 우이신설도시철도"},
{"lat" : 37.4689220306,
"lon" : 126.8955936965,
"address" : "서울특별시 금천구 두산로 70 현대지식산업센터"},
{"lat" : 37.6687953727,
"lon" : 127.0758914448,
"address" : "서울특별시 노원구 상계로 273"},
{"lat" : 37.5429755717,
"lon" : 126.9664881627,
"address" : "서울특별시 용산구 원효로97길 33-4 선린인터넷고등학교 (청파동3가)"},
{"lat" : 37.5000736162,
"lon" : 126.8507751238,
"address" : "서울특별시 구로구 경인로33길 51, 개봉1동 주민센터 (개봉동)"},
{"lat" : 37.5058455275,
"lon" : 126.8805906911,
"address" : "서울특별시 구로구 신도림로 16  (신도림동, 신도림대림1,2차아파트)"},
{"lat" : 37.5283257474,
"lon" : 126.8790117408,
"address" : "서울특별시 양천구 목동동로 316-8  (목동)"},
{"lat" : 37.5115457235,
"lon" : 126.8723971905,
"address" : "서울특별시 양천구 안양천로 711  (신정동)"},
{"lat" : 37.5576838956,
"lon" : 127.0319746926,
"address" : "서울특별시 성동구 행당로 120  (행당동)"},
{"lat" : 37.4510825213,
"lon" : 126.9141576239,
"address" : "서울특별시 금천구 금하로29길 36"},
{"lat" : 37.6136931567,
"lon" : 127.0194654731,
"address" : "서울특별시 강북구 삼양로19길 25 (미아동, 삼성래미안트리베라1차아파트)"},
{"lat" : 37.6135983469,
"lon" : 127.0196205035,
"address" : "서울특별시 강북구 삼양로19길 25 (미아동, 삼성래미안트리베라1차아파트)"},
{"lat" : 37.6148501387,
"lon" : 127.0198711443,
"address" : "서울특별시 강북구 삼양로19길 25 (미아동, 삼성래미안트리베라1차아파트)"},
{"lat" : 37.5322668970,
"lon" : 126.9117521168,
"address" : "서울특별시 영등포구 의사당대로 1 국회사무처"},
{"lat" : 37.5728767099,
"lon" : 127.0806344238,
"address" : "서울특별시 중랑구 동일로 476(면목동, 늘푸른동아아파트)"},
{"lat" : 37.6356873567,
"lon" : 127.0187525795,
"address" : "서울특별시 강북구 삼양로92길 40 강북노인종합복지관"},
{"lat" : 37.5639741647,
"lon" : 127.0616242543,
"address" : "서울특별시 동대문구 한천로6길 21 (장안동 239-1)"},
{"lat" : 37.5087389066,
"lon" : 126.8911091618,
"address" : "서울특별시 구로구 새말로 지하 117-21 신도림역(2호선) (신도림동)"},
{"lat" : 37.6004414644,
"lon" : 126.9567145780,
"address" : "서울특별시 종로구 홍지문2길 1 (홍지동)"},
{"lat" : 37.601939997,
"lon" : 127.0793476247,
"address" : "서울특별시 중랑구 동일로 지하 797(중화동)"},
{"lat" : 37.6108644833,
"lon" : 127.0777171403,
"address" : "서울특별시 중랑구 동일로 지하 901(묵동)"},
{"lat" : 37.6097370366,
"lon" : 126.9289389288,
"address" : "서울특별시 은평구 불광로 20 15층 팜스퀘어 (주)팜스개발 TW 001호"},
{"lat" : 37.636842959,
"lon" : 126.9187436123,
"address" : "서울특별시 은평구 진관2로 지하 15-25"},
{"lat" : 37.6106346425,
"lon" : 126.9083479698,
"address" : "서울특별시 은평구 갈현로17나길 12-1 은평중학교"},
{"lat" : 37.6304419867,
"lon" : 126.9235811378,
"address" : "서울특별시 은평구 진관1로 40, 은평구민체육센터 (진관동)"},
{"lat" : 37.6383332095,
"lon" : 126.9398246567,
"address" : "서울특별시 은평구 진관1로 52 (진관동)"},
{"lat" : 37.5780840312,
"lon" : 127.0812558882,
"address" : "서울특별시 중랑구 사가정로42길 90(면목동, 면목두산아파트)"},
{"lat" : 37.5051100225,
"lon" : 127.0570689098,
"address" : "서울특별시 강남구 삼성로 431 이비스스타일앰배서더호텔 (대치동)"},
{"lat" : 37.6164248912,
"lon" : 127.0933173463,
"address" : "서울특별시 중랑구 신내로 지하 232(신내동)"},
{"lat" : 37.5115444203,
"lon" : 127.0355653760,
"address" : "서울특별시 강남구 언주로 619 (논현동)"},
{"lat" : 37.5045009850,
"lon" : 127.048943601,
"address" : "서울특별시 강남구 테헤란로 지하 340"},
{"lat" : 37.6510238922,
"lon" : 127.0279442781,
"address" : "서울특별시 도봉구 노해로 179"},
{"lat" : 37.5688854829,
"lon" : 127.0087747747,
"address" : "서울특별시 중구 장충단로 275 두타빌딩"},
{"lat" : 37.5366288524,
"lon" : 126.966223981,
"address" : "서울특별시 용산구 원효로 216 용산 e편한세상 관리사무소"},
{"lat" : 37.5688854829,
"lon" : 127.0087747747,
"address" : "서울특별시 중구 장충단로 275 두타빌딩"},
{"lat" : 37.6052493151,
"lon" : 127.0929500477,
"address" : "서울특별시 중랑구 봉화산로 174 신현고등학교"},
{"lat" : 37.5206293228,
"lon" : 126.9753668258,
"address" : "서울특별시 용산구 이촌로 255 신용산초등학교 (이촌동)"},
{"lat" : 37.5410471608,
"lon" : 127.0183305574,
"address" : "서울특별시 성동구 동호로 21"},
{"lat" : 37.6360191679,
"lon" : 127.0238995352,
"address" : "서울특별시 강북구 도봉로 314 국민연금공단"},
{"lat" : 37.6294550340,
"lon" : 127.0247460813,
"address" : "서울특별시 강북구 도봉로 지하 198 미아역 (미아동)"},
{"lat" : 37.5093617083,
"lon" : 126.8865433921,
"address" : "서울특별시 구로구 경인로65길 16-15"},
{"lat" : 37.5576884154,
"lon" : 127.1486010273,
"address" : "서울특별시 강동구 아리수로50길 50  (고덕동, 래미안힐스테이트고덕)"},
{"lat" : 37.6202710620,
"lon" : 127.0135586044,
"address" : "서울특별시 강북구 삼양로181길 17 우이신설도시철도"},
{"lat" : 37.4765488043,
"lon" : 127.1116071610,
"address" : "서울특별시 강남구 자곡로 260"},
{"lat" : 37.6214999747,
"lon" : 126.9943000818,
"address" : "서울특별시 성북구 보국문로 262 (정릉동)"},
{"lat" : 37.5481837145,
"lon" : 127.0136021175,
"address" : "서울특별시 성동구 매봉길 50"},
{"lat" : 37.5688854829,
"lon" : 127.0087747747,
"address" : "서울특별시 중구 장충단로 275 두타빌딩"},
{"lat" : 37.5688854829,
"lon" : 127.0087747747,
"address" : "서울특별시 중구 장충단로 275 두타빌딩"},
{"lat" : 37.4893921953,
"lon" : 127.0506343686,
"address" : "서울특별시 강남구 남부순환로 2803 (도곡동, 삼성래미안아파트)"},
{"lat" : 37.5688854829,
"lon" : 127.0087747747,
"address" : "서울특별시 중구 장충단로 275 두타빌딩"},
{"lat" : 37.5667621112,
"lon" : 126.9672019284,
"address" : "서울특별시 종로구 새문안로 9  (평동)"},
{"lat" : 37.4965589229,
"lon" : 126.8889646759,
"address" : "서울특별시 구로구 가마산로25길 9-24(구로동)"},
{"lat" : 37.6551809083,
"lon" : 127.0351260798,
"address" : "서울특별시 도봉구 도봉로129길 45-12"},
{"lat" : 37.6424471540,
"lon" : 127.0177266004,
"address" : "서울특별시 강북구 삼각산로 143-1 수유벽산아파트 (수유동, 수유벽산아파트)"},
{"lat" : 37.6384807368,
"lon" : 127.0165734053,
"address" : "서울특별시 강북구 삼양로97길 1 우이감리교회 (수유동)"},
{"lat" : 37.5029838534,
"lon" : 127.1194907026,
"address" : "서울특별시 송파구 오금로32길 31 (송파동, 래미안송파파인탑)"},
{"lat" : 37.5610839977,
"lon" : 126.8408210509,
"address" : "서울특별시 강서구 강서로56나길 37 관리사무소"},
{"lat" : 37.6065229379,
"lon" : 127.0758371918,
"address" : "서울특별시 중랑구 동일로149길 46"},
{"lat" : 37.4928693184,
"lon" : 126.8395728015,
"address" : "서울특별시 구로구 경인로8길 75 관리사무소 입구"},
{"lat" : 37.6156958562,
"lon" : 127.0211397064,
"address" : "서울특별시 강북구 삼양로19길 25 (미아동, 삼성래미안트리베라1차아파트)"},
{"lat" : 37.6142053980,
"lon" : 127.0192867657,
"address" : "서울특별시 강북구 삼양로19길 25 (미아동, 삼성래미안트리베라1차아파트)"},
{"lat" : 37.6114416961,
"lon" : 127.0500057397,
"address" : "서울특별시 성북구 장월로8가길 41  (장위동)"},
{"lat" : 37.6412144235,
"lon" : 127.0260099145,
"address" : "서울특별시 강북구 한천로140길 5-26 강북청소년드림센터"},
{"lat" : 37.5333944528,
"lon" : 126.9135157721,
"address" : "서울특별시 영등포구 의사당대로 1 국회사무처"},
{"lat" : 37.5799037141,
"lon" : 126.9731102739,
"address" : "서울특별시 종로구 효자로 39 창성동 별관"},
{"lat" : 37.5634024562,
"lon" : 126.8312315893,
"address" : "서울특별시 강서구 마곡중앙10로 30 LG사이언스파크"},
{"lat" : 37.6297305073,
"lon" : 127.0979605748,
"address" : "서울특별시 노원구 화랑로 682"},
{"lat" : 37.6334063108,
"lon" : 127.0171115456,
"address" : "서울특별시 강북구 삼양로 335-1 강북구 응급의료교육장"},
{"lat" : 37.5967817888,
"lon" : 127.0858373582,
"address" : "서울특별시 중랑구 망우로 297(상봉동)"},
{"lat" : 37.538860271,
"lon" : 127.1244314062,
"address" : "서울특별시 강동구 천호대로 1005"},
{"lat" : 37.6338085514,
"lon" : 127.0599994905,
"address" : "서울특별시 노원구 월계로55길 48 서울연지초등학교 1층 중앙현관"},
{"lat" : 37.6378581845,
"lon" : 127.0252689531,
"address" : "서울특별시 강북구 도봉로 지하 338 수유역 (수유동)"},
{"lat" : 37.5748827194,
"lon" : 126.8907321801,
"address" : "서울특별시 마포구 월드컵북로47길 46  (상암동, 상암월드컵파크 2단지)"},
{"lat" : 37.5381379300,
"lon" : 127.0950662604,
"address" : "서울특별시 광진구 구의강변로 94 관리사무소 (구의동, 현대아파트)"},
{"lat" : 37.6141674625,
"lon" : 127.0193105408,
"address" : "서울특별시 강북구 삼양로19길 25 (미아동, 삼성래미안트리베라1차아파트)"},
{"lat" : 37.4570651099,
"lon" : 126.8960351556,
"address" : "서울특별시 금천구 시흥대로73길 70, 금천구청종합청사 (시흥동)"},
{"lat" : 37.5050967468,
"lon" : 126.8927521002,
"address" : "서울특별시 구로구 새말로18길 31, 구로구민체육관 (구로동)"},
{"lat" : 37.6387138869,
"lon" : 127.0231448305,
"address" : "서울특별시 강북구 노해로 36, 수유3동 주민센터 (수유동)"},
{"lat" : 37.4985040423,
"lon" : 126.8917120793,
"address" : "서울특별시 구로구 공원로 15 구로도서관 (구로동)"},
{"lat" : 37.5109612823,
"lon" : 126.8822384152,
"address" : "서울특별시 구로구 신도림로 87 (신도림동) 신도림1차동아아파트"},
{"lat" : 37.5081491770,
"lon" : 126.8885688333,
"address" : "서울특별시 구로구 경인로 662  (신도림동, 디큐브시티)"},
{"lat" : 37.6085262736,
"lon" : 127.0962475431,
"address" : "서울특별시 중랑구 신내로 110(신내동, 동성아파트)"},
{"lat" : 37.6037626191,
"lon" : 127.0907149774,
"address" : "서울특별시 중랑구 봉화산로 130(상봉동, 신내13단지쌍용아파트)"},
{"lat" : 37.5996416417,
"lon" : 127.0868122008,
"address" : "서울특별시 중랑구 봉화산로 153(상봉동, 신내12단지신내아파트)"},
{"lat" : 37.4713369752,
"lon" : 127.0999646787,
"address" : "서울특별시 강남구 자곡로 152  (자곡동)"},
{"lat" : 37.5664913717,
"lon" : 126.9818669516,
"address" : "서울특별시 중구 을지로 35 KEB하나은행 을지로본점 (을지로1가)"},
{"lat" : 37.4557504500,
"lon" : 127.0689835592,
"address" : "서울특별시 서초구 헌릉로 260 삼성발달센터 5층"},
{"lat" : 37.5498104142,
"lon" : 127.0270101826,
"address" : "서울특별시 성동구 독서당로 343  (금호동1가, 금호 삼성래미안 아파트)"},
{"lat" : 37.5667202087,
"lon" : 126.8067387861,
"address" : "서울특별시 강서구 개화동로23길 20"},
{"lat" : 37.6034900275,
"lon" : 127.0980892298,
"address" : "서울특별시 중랑구 봉화산로56길 123(신내동, 중앙하이츠아파트)"},
{"lat" : 37.6610747591,
"lon" : 127.0068136111,
"address" : "서울특별시 강북구 삼양로173길 120 북한산국립공원 우이분소"},
{"lat" : 37.5688854829,
"lon" : 127.0087747747,
"address" : "서울특별시 중구 장충단로 275 두타빌딩"},
{"lat" : 37.5688854829,
"lon" : 127.0087747747,
"address" : "서울특별시 중구 장충단로 275 두타빌딩"},
{"lat" : 37.6114416961,
"lon" : 127.0500057397,
"address" : "서울특별시 성북구 장월로8가길 41  (장위동)"},
{"lat" : 37.6232980416,
"lon" : 127.0162381349,
"address" : "서울특별시 강북구 삼양로49길 17"},
{"lat" : 37.6434408860,
"lon" : 127.0028326680,
"address" : "서울특별시 강북구 4.19로 114 근현대사기념관"},
{"lat" : 37.6048129834,
"lon" : 127.0836541031,
"address" : "서울특별시 중랑구 봉화산로27길 62 중화고등학교"},
{"lat" : 37.6038223680,
"lon" : 127.1095003892,
"address" : "서울특별시 중랑구 양원역로 32"},
{"lat" : 37.6156181855,
"lon" : 127.0211708888,
"address" : "서울특별시 강북구 삼양로19길 25 (미아동, 삼성래미안트리베라1차아파트)"},
{"lat" : 37.6148406782,
"lon" : 127.0198711418,
"address" : "서울특별시 강북구 삼양로19길 25 (미아동, 삼성래미안트리베라1차아파트)"},
{"lat" : 37.5206293228,
"lon" : 126.9753668258,
"address" : "서울특별시 용산구 이촌로 255 신용산초등학교 (이촌동)"},
{"lat" : 37.5939697216,
"lon" : 126.9232108153,
"address" : "서울특별시 은평구 백련산로 90, 은평병원 (응암동)"},
{"lat" : 37.4885759540,
"lon" : 126.8889131723,
"address" : "서울특별시 구로구 도림로 59 구로두산아파트 (구로동, 구로두산아파트)"},
{"lat" : 37.627090357,
"lon" : 127.0269746851,
"address" : "서울특별시 강북구 솔매로49길 14 출입문 안쪽 옆 벽면"},
{"lat" : 37.5658348823,
"lon" : 126.8007710381,
"address" : "서울특별시 강서구 하늘길 112 국제선"},
{"lat" : 37.5486598756,
"lon" : 127.1461523606,
"address" : "서울특별시 강동구 상암로51길 61  (명일동, 명일엘지아파트)"},
{"lat" : 37.6148435648,
"lon" : 127.0293578511,
"address" : "서울특별시 강북구 도봉로13길 13 (미아동)"},
{"lat" : 37.5025424238,
"lon" : 127.1280308118,
"address" : "서울특별시 송파구 오금로 323"},
{"lat" : 37.6127982635,
"lon" : 127.1032344053,
"address" : "서울특별시 중랑구 신내역로 20 번지"},
{"lat" : 37.6167981767,
"lon" : 127.0187002628,
"address" : "서울특별시 강북구 삼양로19길 113 삼각산아이원아파트(임대)"},
{"lat" : 37.4841281273,
"lon" : 126.9095067512,
"address" : "서울특별시 관악구 조원로 67 서울조원초등학교 (신림동)"},
{"lat" : 37.6541920372,
"lon" : 126.9508767231,
"address" : "서울특별시 은평구 대서문길 64, 북한산국립공원관리소 (진관동)"},
{"lat" : 37.5557093530,
"lon" : 127.0420553664,
"address" : "서울특별시 성동구 왕십리로 199, 덕수고등학교 (행당동)"},
{"lat" : 37.5049700842,
"lon" : 127.0049168971,
"address" : "서울특별시 서초구 신반포로 지하 188 3호선 역무실 맞은편 (반포동)"},
{"lat" : 37.5916536476,
"lon" : 127.0221474285,
"address" : "서울특별시 성북구 보문로34다길 2 (돈암동) (돈암동)"},
{"lat" : 37.5745217957,
"lon" : 127.0519960413,
"address" : "서울특별시 동대문구 사가정로 59 동대문중학교 보건실 (전농동)"},
{"lat" : 37.491617777,
"lon" : 126.8616254703,
"address" : "서울특별시 구로구 개봉로20길 158(개봉동)"},
{"lat" : 37.5372097081,
"lon" : 127.1434371428,
"address" : "서울특별시 강동구 천호대로193길 37"},
{"lat" : 37.6160504105,
"lon" : 127.0882018259,
"address" : "서울특별시 중랑구 신내로21길 16(묵동, 신내두산대림아파트)"},
{"lat" : 37.5744287797,
"lon" : 127.0851538997,
"address" : "서울특별시 중랑구 용마산로 228(면목동, 도시개발아파트)"},
{"lat" : 37.6266699068,
"lon" : 127.0547103147,
"address" : "서울특별시 노원구 월계로 298 월계문화체육센터"},
{"lat" : 37.4686636753,
"lon" : 126.8968872603,
"address" : "서울특별시 금천구 시흥대로 391 홈플러스금천점(주)"},
{"lat" : 37.5436699282,
"lon" : 126.8739854761,
"address" : "서울특별시 양천구 목동중앙북로16길 57 (목동)"},
{"lat" : 37.6373547495,
"lon" : 127.0273613409,
"address" : "서울특별시 강북구 오패산로 406 강북경찰서 (번동)"},
{"lat" : 37.4557459795,
"lon" : 127.0689242180,
"address" : "서울특별시 서초구 헌릉로 260 삼성발달센터 1층"},
{"lat" : 37.5534365136,
"lon" : 126.8436484656,
"address" : "서울특별시 강서구 우장산로 66"},
{"lat" : 37.5120357025,
"lon" : 127.0663490189,
"address" : "서울특별시 강남구 봉은사로114길 43  (삼성동)"},
{"lat" : 37.5576884154,
"lon" : 127.1486010273,
"address" : "서울특별시 강동구 아리수로50길 50  (고덕동, 래미안힐스테이트고덕)"},
{"lat" : 37.4960553366,
"lon" : 126.8594234614,
"address" : "서울특별시 구로구 경인로40길 11"},
{"lat" : 37.6115392765,
"lon" : 126.9356783471,
"address" : "서울특별시 은평구 불광로2길 46 (불광동, 불광에스에이치빌)"},
{"lat" : 37.5600677343,
"lon" : 126.8330364132,
"address" : "서울특별시 강서구 마곡동로 55 10층 (주)에어필립 (마곡동)"},
{"lat" : 37.6051918491,
"lon" : 127.1014617438,
"address" : "서울특별시 중랑구 용마산로 616(신내동, 새한아파트)"},
{"lat" : 37.4982363590,
"lon" : 126.8726550616,
"address" : "서울특별시 구로구 경인로 482, 롯데마트구로점 (구로동)"},
{"lat" : 37.4935203833,
"lon" : 126.8843661373,
"address" : "서울특별시 구로구 도림천로 477(구로동)"},
{"lat" : 37.4933127729,
"lon" : 126.8940625816,
"address" : "서울특별시 구로구 도림천로 352, 서울메트로 (구로동)"},
{"lat" : 37.5034993087,
"lon" : 126.8842089389,
"address" : "서울특별시 구로구 새말로 31(구로동)"},
{"lat" : 37.6777466476,
"lon" : 127.0032919417,
"address" : "서울특별시 강북구 삼양로173길 120 북한산국립공원 우이분소"},
{"lat" : 37.5657367369,
"lon" : 126.8009152759,
"address" : "서울특별시 강서구 하늘길 112 국제선 3층 38gate"},
{"lat" : 37.5587858634,
"lon" : 126.8033548795,
"address" : "서울특별시 강서구 하늘길 112 국내선 3층 격리대합실 (좌)"},
{"lat" : 37.5294396634,
"lon" : 126.9143462167,
"address" : "서울특별시 영등포구 의사당대로 1 국회사무처"},
{"lat" : 37.5688854829,
"lon" : 127.0087747747,
"address" : "서울특별시 중구 장충단로 275 두타빌딩"},
{"lat" : 37.5520108905,
"lon" : 127.0787740881,
"address" : "서울특별시 광진구 능동로 216 어린이대공원(아리수나라) (능동)"},
{"lat" : 37.5688854829,
"lon" : 127.0087747747,
"address" : "서울특별시 중구 장충단로 275 두타빌딩"},
{"lat" : 37.4256144456,
"lon" : 126.7006819084,
"address" : "인천광역시 연수구 선학로 101 (선학동, 뉴서울1차아파트)"},
{"lat" : 37.6152306907,
"lon" : 127.0855097081,
"address" : "서울특별시 중랑구 숙선옹주로 82 원묵고등학교"},
{"lat" : 37.5576838956,
"lon" : 127.0319746926,
"address" : "서울특별시 성동구 행당로 120  (행당동)"},
{"lat" : 37.4834930115,
"lon" : 127.1197536236,
"address" : "서울특별시 송파구 법원로 101 서울동부지방법원"},
{"lat" : 37.6125116755,
"lon" : 127.0298779294,
"address" : "서울특별시 강북구 도봉로 39 숭인치안센터"},
{"lat" : 37.4479040354,
"lon" : 126.9007219739,
"address" : "서울특별시 금천구 시흥대로 165 (시흥동, 남서울힐스테이트아파트)"},
{"lat" : 37.4499715890,
"lon" : 126.9154314336,
"address" : "서울특별시 금천구 금하로 796 (시흥동, 벽산6단지아파트)"},
{"lat" : 37.5688854829,
"lon" : 127.0087747747,
"address" : "서울특별시 중구 장충단로 275 두타빌딩"},
{"lat" : 37.5372097081,
"lon" : 127.1434371428,
"address" : "서울특별시 강동구 천호대로193길 37"},
{"lat" : 37.6541920372,
"lon" : 126.9508767231,
"address" : "서울특별시 은평구 대서문길 64, 북한산국립공원관리소 (진관동)"},
{"lat" : 37.5429755717,
"lon" : 126.9664881627,
"address" : "서울특별시 용산구 원효로97길 33-4 선린인터넷고등학교 (청파동3가)"},
{"lat" : 37.543621002,
"lon" : 127.0435874895,
"address" : "서울특별시 성동구 왕십리로 63  (성수동1가)"},
{"lat" : 37.6189618244,
"lon" : 126.9211643905,
"address" : "서울특별시 은평구 통일로 지하 849, 3,6호선 연신내역사무소 (갈현동)"},
{"lat" : 37.5771630559,
"lon" : 126.9019272023,
"address" : "서울특별시 은평구 수색로 지하 175, 6호선 디지털미디어시티역 (증산동)"},
{"lat" : 37.6243127994,
"lon" : 127.0278161257,
"address" : "서울특별시 강북구 솔매로50길 43 (미아동)"},
{"lat" : 37.6429149619,
"lon" : 127.0499996361,
"address" : "서울특별시 노원구 마들로5가길 66-107 초안산캠핑장"},
{"lat" : 37.5747004249,
"lon" : 127.0856082421,
"address" : "서울특별시 중랑구 면목로 246(면목동)"},
{"lat" : 37.5829553229,
"lon" : 127.0880676655,
"address" : "서울특별시 중랑구 사가정로51길 48(면목동)"},
{"lat" : 37.5897750558,
"lon" : 127.0789859745,
"address" : "서울특별시 중랑구 동일로101길 20-15(면목동)"},
{"lat" : 37.6151823949,
"lon" : 127.0874804429,
"address" : "서울특별시 중랑구 신내로15길 189(묵동)"},
{"lat" : 37.6056976178,
"lon" : 127.0990841844,
"address" : "서울특별시 중랑구 용마산로129나길 35(신내동)"},
{"lat" : 37.6053821886,
"lon" : 126.9669041218,
"address" : "서울특별시 종로구 평창문화로 50(평창동)"},
{"lat" : 37.5900735594,
"lon" : 126.9976313169,
"address" : "서울특별시 종로구 성균관로 87(명륜1가)"},
{"lat" : 37.5723869713,
"lon" : 126.9898779745,
"address" : "서울특별시 종로구 돈화문로11길 지하 26, 5호선 종로3가역 (돈의동)"},
{"lat" : 37.5712868949,
"lon" : 126.9915862747,
"address" : "서울특별시 종로구 돈화문로 지하 30(묘동)"},
{"lat" : 37.5704495859,
"lon" : 126.9908945093,
"address" : "서울특별시 종로구 종로 지하 129(종로3가)"},
{"lat" : 37.5706836794,
"lon" : 126.9889565583,
"address" : "서울특별시 종로구 종로17길 8(종로2가)"},
{"lat" : 37.5744815612,
"lon" : 126.9747671573,
"address" : "서울특별시 종로구 세종대로 209(세종로)"},
{"lat" : 37.5233236773,
"lon" : 126.9575781946,
"address" : "서울특별시 용산구 이촌로34길 29"},
{"lat" : 37.5368372803,
"lon" : 127.0094220390,
"address" : "서울특별시 용산구 독서당로 111"},
{"lat" : 37.5523940223,
"lon" : 126.9710695432,
"address" : "서울특별시 용산구 한강대로 405"},
{"lat" : 37.4923097494,
"lon" : 127.1184831331,
"address" : "서울특별시 송파구 송파대로 지하257 가락시장역(3호선) 역무실 앞"},
{"lat" : 37.5115485333,
"lon" : 127.0891962049,
"address" : "서울특별시 송파구 올림픽로 지하 140 잠실새내역(신천역)"},
{"lat" : 37.5177034571,
"lon" : 127.0746658232,
"address" : "서울특별시 송파구 올림픽로 지하 265 잠실역(2호선)"},
{"lat" : 37.5189311943,
"lon" : 127.1047564742,
"address" : "서울특별시 송파구 오금로 20 잠실나루역"},
{"lat" : 37.4775601850,
"lon" : 127.1305161056,
"address" : "서울특별시 송파구 송파대로8길 20 관리사무소 내부"},
{"lat" : 37.4791492314,
"lon" : 127.1308173426,
"address" : "서울특별시 송파구 충민로4길 19 관리사무소"},
{"lat" : 37.4805089144,
"lon" : 127.1315738242,
"address" : "서울특별시 송파구 충민로6길 14 관리사무소"},
{"lat" : 37.4800513332,
"lon" : 127.1298262531,
"address" : "서울특별시 송파구 충민로4길 5 관리사무소"},
{"lat" : 37.4861434251,
"lon" : 127.1347213603,
"address" : "서울특별시 송파구 충민로 188 송파파인타운 1단지"},
{"lat" : 37.5154271918,
"lon" : 127.1208000257,
"address" : "서울특별시 송파구 위례성대로 71"},
{"lat" : 37.5086775032,
"lon" : 127.0770003196,
"address" : "서울특별시 송파구 올림픽로4길 17 (202호) 민원대기실"},
{"lat" : 37.5181202688,
"lon" : 127.1006378848,
"address" : "서울특별시 송파구 올림픽로35길 120 민원대기실"},
{"lat" : 37.5128606153,
"lon" : 126.8501140255,
"address" : "서울특별시 양천구 신정로 273-5 (신정동)"},
{"lat" : 37.5543774812,
"lon" : 127.0372787708,
"address" : "서울특별시 성동구 고산자로 164  (행당동, 행당한신아파트)"},
{"lat" : 37.492324718,
"lon" : 127.0168124440,
"address" : "서울특별시 서초구 서초대로54길 45 1층"},
{"lat" : 37.5132996654,
"lon" : 127.0943741863,
"address" : "서울특별시 송파구 잠실로 51-31 민원대기실"},
{"lat" : 37.5118914081,
"lon" : 127.0885405893,
"address" : "서울특별시 송파구 올림픽로 159 민원대기실"},
{"lat" : 37.4955788701,
"lon" : 127.121763178,
"address" : "서울특별시 송파구 송파대로28길 39 민원대기실"},
{"lat" : 37.5027233350,
"lon" : 127.0925242308,
"address" : "서울특별시 송파구 백제고분로 236 민원대기실"},
{"lat" : 37.5155568033,
"lon" : 127.1342742576,
"address" : "서울특별시 송파구 양재대로 1232 민원대기실"},
{"lat" : 37.5145541352,
"lon" : 127.1144508003,
"address" : "서울특별시 송파구 백제고분로 495 민원대기실"},